Y4.6.1.0*19
$GPTXT,01,01,02,TB=2017-11-23,14:56:57*4B
$GPTXT,01,01,02,MO=GB*77
$GPTXT,01,01,02,BS=SOC_BootLoader,V6.2.0.2*34
$GPTXT,01,01,02,CI=01B94154*04
$GNGLL,,,,,,V,M*79
$GPGSA,A,1,,,,,,,,,,,,,25.5,25.5,25.5*02
$BDGSA,A,1,,,,,,,,,,,,,25.5,25.5,25.5*13
$GPGSV,1,1,00*79
$BDGSV,1,1,00*68
$GNRMC,,V,,,,,,,,,,M*4E
$GNVTG,,,,,,,,,M*2D
$GNZDA,,,,,,*56
$GPTXT,01,01,01,ANTENNA OK*35
,,V,,,,,,,,,,M*4E
$GNVTG,,,,,,,,,M*2D
$GNZDA,,,,,,*56
$GPTXT,01,01,01,ANTENNA OK*35
$GNGGA,,,,,,0,00,25.5,,,,,,*64
$GNGLL,,,,,,V,M*79
$GPGSA,A,1,,,,,,,,,,,,,25.5,25.5,25.5*02
$BDGSA,A,1,,,,,,,,,,,,,25.5,25.5,25.5*13
$GPGSV,1,1,03,15,,,38,21,,,34,29,,,37*7E
$BDGSV,1,1,02,06,,,35,20,,,35*6E
$GNRMC,,V,,,,,,,,,,M*4E
$GNVTG,,,,,,,,,M*2D
$GNZDA,,,,,,*56
$GPTXT,01,01,01,ANTENNA OK*35
??b??r?bbbbbbR??j
$GNGLL,,,,,,V,M*79
$GPGSA,A,1,,,,,,,,,,,,,25.5,25.5,25.5*02
$BDGSA,A,1,,,,,,,,,,,,,25.5,25.5,25.5*13
$GPGSV,1,1,03,15,,,38,21,,,34,29,,,36*7F
$BDGSV,1,1,03,06,,,35,08,,,33,20,,,36*64
$GNRMC,,V,,,,,,,,,,M*4E
$GNVTG,,,,,,,,,M*2D
$GNZDA,,,,,,*56
$GPTXT,01,01,01,ANTENNA OK*35
bbbbbR??j
$GNGLL,,,,,,V,M*79
$GPGSA,A,1,,,,,,,,,,,,,25.5,25.5,25.5*02
$BDGSA,A,1,,,,,,,,,,,,,25.5,25.5,25.5*13
$GPGSV,1,1,03,15,,,38,21,,,32,29,,,33*7C
$BDGSV,1,1,03,06,,,35,08,,,33,20,,,37*65
$GNRMC,,V,,,,,,,,,,M*4E
$GNVTG,,,,,,,,,M*2D
$GNZDA,,,,,,*56
$GPTXT,01,01,01,ANTENNA OK*35
K???I??j
$GNGLL,,,,,,V,M*79
$GPGSA,A,1,,,,,,,,,,,,,25.5,25.5,25.5*02
$BDGSA,A,1,,,,,,,,,,,,,25.5,25.5,25.5*13
$GPGSV,1,1,03,15,,,37,21,,,28,29,,,33*78
$BDGSV,1,1,04,06,,,35,08,,,33,13,,,33,20,,,37*60
$GNRMC,,V,,,,,,,,,,M*4E
$GNVTG,,,,,,,,,M*2D
$GNZDA,,,,,,*56
$GPTXT,01,01,01,ANTENNA OK*35
H$GNGLL,,,,,,V,M*79
$GPGSA,A,1,,,,,,,,,,,,,25.5,25.5,25.5*02
$BDGSA,A,1,,,,,,,,,,,,,25.5,25.5,25.5*13
$GPGSV,1,1,03,15,,,34,21,,,28,29,,,31*79
$BDGSV,1,1,04,06,,,35,08,,,33,13,,,35,20,,,37*66
$GNRMC,,V,,,,,,,,,,M*4E
$GNVTG,,,,,,,,,M*2D
$GNZDA,,,,,,*56
$GPTXT,01,01,01,ANTENNA OK*35

$GNGLL,,,,,,V,M*79
$GPGSA,A,1,,,,,,,,,,,,,25.5,25.5,25.5*02
$BDGSA,A,1,,,,,,,,,,,,,25.5,25.5,25.5*13
$GPGSV,1,1,03,15,,,34,21,,,28,29,,,32*7A
$BDGSV,1,1,04,06,,,35,08,,,33,13,,,35,20,,,36*67
$GNRMC,,V,,,,,,,,,,M*4E
$GNVTG,,,,,,,,,M*2D
$GNZDA,,,,,,*56
$GPTXT,01,01,01,ANTENNA OK*35
)$GNGLL,,,,,,V,M*79
$GPGSA,A,1,,,,,,,,,,,,,25.5,25.5,25.5*02
$BDGSA,A,1,,,,,,,,,,,,,25.5,25.5,25.5*13
$GPGSV,1,1,03,15,,,34,21,,,29,29,,,32*7B
$BDGSV,1,1,04,06,,,35,08,,,33,13,,,35,20,,,36*67
$GNRMC,,V,,,,,,,,,,M*4E
$GNVTG,,,,,,,,,M*2D
$GNZDA,,,,,,*56
$GPTXT,01,01,01,ANTENNA OK*35
R$GNGLL,,,,,,V,M*79
$GPGSA,A,1,,,,,,,,,,,,,25.5,25.5,25.5*02
$BDGSA,A,1,,,,,,,,,,,,,25.5,25.5,25.5*13
$GPGSV,1,1,03,15,,,34,21,,,29,29,,,32*7B
$BDGSV,1,1,04,06,,,35,08,,,33,13,,,34,20,,,36*66
$GNRMC,,V,,,,,,,,,,M*4E
$GNVTG,,,,,,,,,M*2D
$GNZDA,,,,,,*56
$GPTXT,01,01,01,ANTENNA OK*35
$GNGLL,,,,,,V,M*79
$GPGSA,A,1,,,,,,,,,,,,,25.5,25.5,25.5*02
$BDGSA,A,1,,,,,,,,,,,,,25.5,25.5,25.5*13
$GPGSV,1,1,03,15,,,34,21,,,30,29,,,33*72
$BDGSV,1,1,04,06,,,35,08,,,33,13,,,34,20,,,36*66
$GNRMC,,V,,,,,,,,,,M*4E
$GNVTG,,,,,,,,,M*2D
$GNZDA,,,,,,*56
$GPTXT,01,01,01,ANTENNA OK*35
?b??b??r?bbbbbbR?
5
$GNGLL,,,,,072038.187,V,M*67
$GPGSA,A,1,,,,,,,,,,,,,25.5,25.5,25.5*02
$BDGSA,A,1,,,,,,,,,,,,,25.5,25.5,25.5*13
$GPGSV,1,1,03,15,,,34,21,,,30,29,,,33*72
$BDGSV,1,1,04,06,,,36,08,,,33,13,,,34,20,,,36*65
$GNRMC,072038.187,V,,,,,,,,,,M*50
$GNVTG,,,,,,,,,M*2D
$GNZDA,072038.187,,,,,*48
$GPTXT,01,01,01,ANTENNA OK*35
GSA,A,1,,,,,,,,,,,,,25.5,25.5,25.5*02
$BDGSA,A,1,,,,,,,,,,,,,25.5,25.5,25.5*13
$GPGSV,1,1,03,15,,,35,21,,,30,29,,,33*73
$BDGSV,2,1,05,06,,,36,08,,,33,13,,,34,19,,,34*6F
$BDGSV,2,2,05,20,,,37*6B
$GNRMC,072039.187,V,,,,,,,,,,M*51
$GNVTG,,,,,,,,,M*2D
$GNZDA,072039.187,,,,,*49
$GPTXT,01,01,01,ANTENNA OK*35
	???????I?r?b??r?b??r?R??j
$GPGSV,1,1,03,15,,,35,21,,,30,29,,,33*73
$BDGSV,2,1,05,06,,,36,08,,,33,13,,,34,19,,,34*6F
$BDGSV,2,2,05,20,,,37*6B
$GNRMC,072040.187,V,,,,,,,,,,M*5F
$GNVTG,,,,,,,,,M*2D
$GNZDA,072040.187,,,,,*47
$GPTXT,01,01,01,ANTENNA OK*35
25.5,25.5,25.5*02
$BDGSA,A,1,,,,,,,,,,,,,25.5,25.5,25.5*13
$GPGSV,1,1,03,15,,,36,21,,,30,29,,,32*71
$BDGSV,2,1,05,06,,,36,08,,,33,13,,,34,19,,,34*6F
$BDGSV,2,2,05,20,,,37*6B
$GNRMC,072041.187,V,,,,,,,,,,M*5E
$GNVTG,,,,,,,,,M*2D
$GNZDA,072041.187,,,,,*46
$GPTXT,01,01,01,ANTENNA OK*35
????????I?r?b??r?b??r?R??j
$BDGSA,A,1,,,,,,,,,,,,,25.5,25.5,25.5*13
$GPGSV,1,1,03,15,,,36,21,,,30,29,,,32*71
$BDGSV,2,1,05,06,,,35,08,,,33,13,,,34,19,,,33*6B
$BDGSV,2,2,05,20,,,37*6B
$GNRMC,072042.187,V,,,,,,,,,,M*5D
$GNVTG,,,,,,,,,M*2D
$GNZDA,072042.187,,,,,*45
$GPTXT,01,01,01,ANTENNA OK*35
02
$BDGSA,A,1,,,,,,,,,,,,,25.5,25.5,25.5*13
$GPGSV,1,1,03,15,,,35,21,,,31,29,,,32*73
$BDGSV,2,1,05,06,,,35,08,,,33,13,,,35,19,,,33*6A
$BDGSV,2,2,05,20,,,37*6B
$GNRMC,072043.187,V,,,,,,,,,,M*5C
$GNVTG,,,,,,,,,M*2D
$GNZDA,072043.187,,,,,*44
$GPTXT,01,01,01,ANTENNA OK*35
6C
$GPGSA,A,1,,,,,,,,,,,,,25.5,25.5,25.5*02
$BDGSA,A,1,,,,,,,,,,,,,25.5,25.5,25.5*13
$GPGSV,1,1,03,15,,,35,21,,,31,29,,,33*72
$BDGSV,2,1,05,06,,,35,08,,,33,13,,,35,19,,,33*6A
$BDGSV,2,2,05,20,,,36*6A
$GNRMC,072044.187,V,,,,,,,,,,M*5B
$GNVTG,,,,,,,,,M*2D
$GNZDA,072044.187,,,,,*43
$GPTXT,01,01,01,ANTENNA OK*35
5,25.5,25.5*02
$BDGSA,A,1,,,,,,,,,,,,,25.5,25.5,25.5*13
$GPGSV,1,1,03,15,,,33,21,,,31,29,,,33*74
$BDGSV,2,1,05,06,,,34,08,,,33,13,,,35,19,,,33*6B
$BDGSV,2,2,05,20,,,36*6A
$GNRMC,072045.187,V,,,,,,,,,,M*5A
$GNVTG,,,,,,,,,M*2D
$GNZDA,072045.187,,,,,*42
$GPTXT,01,01,01,ANTENNA OK*35
bbbbbbbbbbbbb??r?b??r?b??r?R??j
$GPGSV,1,1,03,15,,,33,21,,,30,29,,,31*77
$BDGSV,2,1,05,06,,,34,08,,,33,13,,,35,19,,,32*6A
$BDGSV,2,2,05,20,,,36*6A
$GNRMC,072046.187,V,,,,,,,,,,M*59
$GNVTG,,,,,,,,,M*2D
$GNZDA,072046.187,,,,,*41
$GPTXT,01,01,01,ANTENNA OK*35
25.5,25.5,25.5*02
$BDGSA,A,1,,,,,,,,,,,,,25.5,25.5,25.5*13
$GPGSV,1,1,03,15,,,34,21,,,30,29,,,31*70
$BDGSV,2,1,05,06,,,34,08,,,35,13,,,35,19,,,32*6C
$BDGSV,2,2,05,20,,,35*69
$GNRMC,072047.187,V,,,,,,,,,,M*58
$GNVTG,,,,,,,,,M*2D
$GNZDA,072047.187,,,,,*40
$GPTXT,01,01,01,ANTENNA OK*35
,?I?r?b??r?b??r?R??j
$BDGSA,A,1,,,,,,,,,,,,,25.5,25.5,25.5*13
$GPGSV,1,1,03,15,,,34,21,,,30,29,,,31*70
$BDGSV,2,1,05,06,,,34,08,,,35,13,,,35,19,,,32*6C
$BDGSV,2,2,05,20,,,35*69
$GNRMC,072048.187,V,,,,,,,,,,M*57
$GNVTG,,,,,,,,,M*2D
$GNZDA,072048.187,,,,,*4F
$GPTXT,01,01,01,ANTENNA OK*35
?r?b??r?R??j
$BDGSA,A,1,,,,,,,,,,,,,25.5,25.5,25.5*13
$GPGSV,1,1,03,15,,,33,21,,,28,29,,,31*7E
$BDGSV,2,1,05,06,,,34,08,,,34,13,,,35,19,,,32*6D
$BDGSV,2,2,05,20,,,35*69
$GNRMC,072049.187,V,,,,,,,,,,M*56
$GNVTG,,,,,,,,,M*2D
$GNZDA,072049.187,,,,,*4E
$GPTXT,01,01,01,ANTENNA OK*35
25.5,25.5*02
$BDGSA,A,1,,,,,,,,,,,,,25.5,25.5,25.5*13
$GPGSV,1,1,03,15,,,33,21,,,28,29,,,31*7E
$BDGSV,2,1,05,06,,,34,08,,,34,13,,,34,19,,,32*6C
$BDGSV,2,2,05,20,,,35*69
$GNRMC,072050.187,V,,,,,,,,,,M*5E
$GNVTG,,,,,,,,,M*2D
$GNZDA,072050.187,,,,,*46
$GPTXT,01,01,01,ANTENNA OK*35
,,,25.5,25.5,25.5*02
$BDGSA,A,1,,,,,,,,,,,,,25.5,25.5,25.5*13
$GPGSV,1,1,03,15,,,33,21,,,30,29,,,25*72
$BDGSV,2,1,05,06,,,35,08,,,32,13,,,34,19,,,32*6B
$BDGSV,2,2,05,20,,,34*68
$GNRMC,072051.187,V,,,,,,,,,,M*5F
$GNVTG,,,,,,,,,M*2D
$GNZDA,072051.187,,,,,*47
$GPTXT,01,01,01,ANTENNA OK*35
I?r?b??r?R??j
$BDGSA,A,1,,,,,,,,,,,,,25.5,25.5,25.5*13
$GPGSV,1,1,03,15,,,34,21,,,26,29,,,25*72
$BDGSV,2,1,05,06,,,35,08,,,29,13,,,35,19,,,33*61
$BDGSV,2,2,05,20,,,29*64
$GNRMC,072052.187,V,,,,,,,,,,M*5C
$GNVTG,,,,,,,,,M*2D
$GNZDA,072052.187,,,,,*44
$GPTXT,01,01,01,ANTENNA OK*35
25.5,25.5*02
$BDGSA,A,1,,,,,,,,,,,,,25.5,25.5,25.5*13
$GPGSV,1,1,03,15,,,34,21,,,26,29,,,28*7F
$BDGSV,2,1,05,06,,,35,08,,,29,13,,,36,19,,,36*67
$BDGSV,2,2,05,20,,,29*64
$GNRMC,072053.187,V,,,,,,,,,,M*5D
$GNVTG,,,,,,,,,M*2D
$GNZDA,072053.187,,,,,*45
$GPTXT,01,01,01,ANTENNA OK*35
??????I?r?b??r?b??r?R??j
$BDGSA,A,1,,,,,,,,,,,,,25.5,25.5,25.5*13
$GPGSV,1,1,03,15,,,34,21,,,26,29,,,28*7F
$BDGSV,2,1,05,06,,,34,08,,,34,13,,,36,19,,,31*6D
$BDGSV,2,2,05,20,,,25*68
$GNRMC,072054.187,V,,,,,,,,,,M*5A
$GNVTG,,,,,,,,,M*2D
$GNZDA,072054.187,,,,,*42
$GPTXT,01,01,01,ANTENNA OK*35
,,,,,,,,,,,25.5,25.5,25.5*02
$BDGSA,A,1,,,,,,,,,,,,,25.5,25.5,25.5*13
$GPGSV,1,1,04,05,,,25,15,,,33,21,,,28,29,,,28*73
$BDGSV,2,1,05,06,,,29,08,,,34,13,,,36,19,,,27*66
$BDGSV,2,2,05,20,,,25*68
$GNRMC,072055.187,V,,,,,,,,,,M*5B
$GNVTG,,,,,,,,,M*2D
$GNZDA,072055.187,,,,,*43
$GPTXT,01,01,01,ANTENNA OK*35
K?????I?r?b??r?b??r?R??j
$GPGSV,1,1,04,05,,,25,15,,,23,21,,,28,29,,,26*7C
$BDGSV,2,1,05,06,,,33,08,,,34,13,,,36,19,,,31*6A
$BDGSV,2,2,05,20,,,25*68
$GNRMC,072056.187,V,,,,,,,,,,M*58
$GNVTG,,,,,,,,,M*2D
$GNZDA,072056.187,,,,,*40
$GPTXT,01,01,01,ANTENNA OK*35
,A,1,,,,,,,,,,,,,25.5,25.5,25.5*02
$BDGSA,A,1,,,,,,,,,,,,,25.5,25.5,25.5*13
$GPGSV,1,1,04,05,,,25,15,,,30,21,,,28,29,,,26*7E
$BDGSV,2,1,05,06,,,31,08,,,33,13,,,32,19,,,31*6B
$BDGSV,2,2,05,20,,,22*6F
$GNRMC,072057.187,V,,,,,,,,,,M*59
$GNVTG,,,,,,,,,M*2D
$GNZDA,072057.187,,,,,*41
$GPTXT,01,01,01,ANTENNA OK*35
b??r?b??r?R??j
$BDGSA,A,1,,,,,,,,,,,,,25.5,25.5,25.5*13
$GPGSV,1,1,04,05,,,27,15,,,36,21,,,36,29,,,26*75
$BDGSV,2,1,05,06,,,31,08,,,33,13,,,32,19,,,31*6B
$BDGSV,2,2,05,20,,,22*6F
$GNRMC,072058.187,V,,,,,,,,,,M*56
$GNVTG,,,,,,,,,M*2D
$GNZDA,072058.187,,,,,*4E
$GPTXT,01,01,01,ANTENNA OK*35
bbbbb??r?b??r?b??r?R??j
$GPGSV,1,1,04,05,,,27,15,,,36,21,,,36,29,,,26*75
$BDGSV,2,1,05,06,,,33,08,,,34,13,,,32,19,,,31*6E
$BDGSV,2,2,05,20,,,25*68
$GNRMC,072059.187,V,,,,,,,290918,,,M*5C
$GNVTG,,,,,,,,,M*2D
$GNZDA,072059.187,29,09,2018,00,00*46
$GPTXT,01,01,01,ANTENNA OK*35
,,,,,,,,,,,,25.5,25.5,25.5*13
$GPGSV,1,1,04,05,,,27,15,,,37,21,,,36,29,,,27*75
$BDGSV,2,1,05,06,,,33,08,,,34,13,,,32,19,,,31*6E
$BDGSV,2,2,05,20,,,25*68
$GNRMC,072100.187,V,,,,,,,290918,,,M*51
$GNVTG,,,,,,,,,M*2D
$GNZDA,072100.187,29,09,2018,00,00*4B
$GPTXT,01,01,01,ANTENNA OK*35
??,,,,,,,,,,,25.5,25.5,25.5*13
$GPGSV,1,1,04,05,,,27,15,,,37,21,,,36,29,,,27*75
$BDGSV,2,1,05,06,,,33,08,,,35,13,,,32,19,,,31*6F
$BDGSV,2,2,05,20,,,27*6A
$GNRMC,072101.187,V,,,,,,,290918,,,M*50
$GNVTG,,,,,,,,,M*2D
$GNZDA,072101.187,29,09,2018,00,00*4A
$GPTXT,01,01,01,ANTENNA OK*35
????????????I?r?b??r?b??r?R??j
$GPGSV,1,1,04,05,,,27,15,,,38,21,,,36,29,,,27*7A
$BDGSV,2,1,05,06,,,33,08,,,35,13,,,32,19,,,27*68
$BDGSV,2,2,05,20,,,27*6A
$GNRMC,072102.187,V,,,,,,,290918,,,M*53
$GNVTG,,,,,,,,,M*2D
$GNZDA,072102.187,29,09,2018,00,00*49
$GPTXT,01,01,01,ANTENNA OK*35
C!M,A,1,,,,,,,,,,,,,25.5,25.5,25.5*13
$GPGSV,2,1,05,05,,,27,15,,,38,20,,,37,21,,,36*70
$GPGSV,2,2,05,29,,,27*72
$BDGSV,2,1,05,06,,,33,08,,,35,13,,,32,19,,,27*68
$BDGSV,2,2,05,20,,,30*6C
$GNRMC,072103.187,V,,,,,,,290918,,,M*52
$GNVTG,,,,,,,,,M*2D
$GNZDA,072103.187,29,09,2018,00,00*48
$GPTXT,01,01,01,ANTENNA OK*35
?uMY,2,1,06,05,,,28,15,,,37,20,,,28,21,,,36*7D
$GPGSV,2,2,06,29,,,25,36,,,30*75
$BDGSV,2,1,05,06,,,33,08,,,34,13,,,32,19,,,27*69
$BDGSV,2,2,05,20,,,33*6F
$GNRMC,072104.187,V,,,,,,,290918,,,M*55
$GNVTG,,,,,,,,,M*2D
$GNZDA,072104.187,29,09,2018,00,00*4F
$GPTXT,01,01,01,ANTENNA OK*35
MY,2,1,06,05,,,28,15,,,37,20,,,33,21,,,36*77
$GPGSV,2,2,06,29,,,25,36,,,30*75
$BDGSV,2,1,05,06,,,33,08,,,32,13,,,31,19,,,27*6C
$BDGSV,2,2,05,20,,,33*6F
$GNRMC,072105.187,V,,,,,,,290918,,,M*54
$GNVTG,,,,,,,,,M*2D
$GNZDA,072105.187,29,09,2018,00,00*4E
$GPTXT,01,01,01,ANTENNA OK*35
PGSV,2,1,06,05,,,28,15,,,37,20,,,31,21,,,31*72
$GPGSV,2,2,06,29,,,27,36,,,30*77
$BDGSV,2,1,05,06,,,32,08,,,32,13,,,34,19,,,28*67
$BDGSV,2,2,05,20,,,30*6C
$GNRMC,072106.187,V,,,,,,,290918,,,M*57
$GNVTG,,,,,,,,,M*2D
$GNZDA,072106.187,29,09,2018,00,00*4D
$GPTXT,01,01,01,ANTENNA OK*35
MY,2,1,06,05,,,29,15,,,36,20,,,31,21,,,28*7A
$GPGSV,2,2,06,29,,,27,36,,,30*77
$BDGSV,2,1,05,06,,,32,08,,,32,13,,,34,19,,,34*6A
$BDGSV,2,2,05,20,,,34*68
$GNRMC,072107.187,V,,,,,,,290918,,,M*56
$GNVTG,,,,,,,,,M*2D
$GNZDA,072107.187,29,09,2018,00,00*4C
$GPTXT,01,01,01,ANTENNA OK*35
M?Ib?b??b??bbb??b??bbb??b??bbb??b??bbb??R?25
$GPGSV,2,2,06,29,,,27,36,,,30*77
$BDGSV,2,1,05,06,,,32,08,,,32,13,,,34,19,,,31*6F
$BDGSV,2,2,05,20,,,30*6C
$GNRMC,072108.187,V,,,,,,,290918,,,M*59
$GNVTG,,,,,,,,,M*2D
$GNZDA,072108.187,29,09,2018,00,00*43
$GPTXT,01,01,01,ANTENNA OK*35
?MY,2,1,06,05,,,33,15,,,36,20,,,31,21,,,31*79
$GPGSV,2,2,06,29,,,27,36,,,30*77
$BDGSV,2,1,05,06,,,32,08,,,31,13,,,34,19,,,35*68
$BDGSV,2,2,05,20,,,27*6A
$GNRMC,072109.187,V,,,,,,,290918,,,M*58
$GNVTG,,,,,,,,,M*2D
$GNZDA,072109.187,29,09,2018,00,00*42
$GPTXT,01,01,01,ANTENNA OK*35
MY,2,1,07,05,,,33,13,,,28,15,,,35,20,,,31*72
$GPGSV,2,2,07,21,,,31,29,,,27,36,,,29*7F
$BDGSV,2,1,05,06,,,31,08,,,31,13,,,33,19,,,35*6C
$BDGSV,2,2,05,20,,,27*6A
$GNRMC,072110.187,V,,,,,,,290918,,,M*50
$GNVTG,,,,,,,,,M*2D
$GNZDA,072110.187,29,09,2018,00,00*4A
$GPTXT,01,01,01,ANTENNA OK*35
)b??b??bbb??b??bbb??b??bbb??b??bbb??R??j
$GPGSV,2,2,07,21,,,31,29,,,28,36,,,29*70
$BDGSV,2,1,05,06,,,31,08,,,31,13,,,33,19,,,35*6C
$BDGSV,2,2,05,20,,,27*6A
$GNRMC,072111.187,V,,,,,,,290918,,,M*51
$GNVTG,,,,,,,,,M*2D
$GNZDA,072111.187,29,09,2018,00,00*4B
$GPTXT,01,01,01,ANTENNA OK*35
??b??bbb??b??bbb??b??bbb??b??bbb??R?
5
$GPGSV,2,2,07,21,,,30,29,,,28,36,,,29*71
$BDGSV,2,1,05,06,,,31,08,,,31,13,,,33,19,,,34*6D
$BDGSV,2,2,05,20,,,27*6A
$GNRMC,072112.187,V,,,,,,,290918,,,M*52
$GNVTG,,,,,,,,,M*2D
$GNZDA,072112.187,29,09,2018,00,00*48
$GPTXT,01,01,01,ANTENNA OK*35
??b??bbb??b??bbb??b??bbb??b??bbb??R??j
$GPGSV,2,2,07,21,,,30,29,,,25,36,,,29*7C
$BDGSV,2,1,05,06,,,31,08,,,31,13,,,34,19,,,36*68
$BDGSV,2,2,05,20,,,27*6A
$GNRMC,072113.187,V,,,,,,,290918,,,M*53
$GNVTG,,,,,,,,,M*2D
$GNZDA,072113.187,29,09,2018,00,00*49
$GPTXT,01,01,01,ANTENNA OK*35
,07,05,,,36,13,,,27,15,,,35,20,,,30*79
$GPGSV,2,2,07,21,,,30,29,,,30,36,,,29*78
$BDGSV,2,1,05,06,,,31,08,,,31,13,,,34,19,,,36*68
$BDGSV,2,2,05,20,,,36*6A
$GNRMC,072114.187,V,,,,,,,290918,,,M*54
$GNVTG,,,,,,,,,M*2D
$GNZDA,072114.187,29,09,2018,00,00*4E
$GPTXT,01,01,01,ANTENNA OK*35
b??b??bbb??b??bbb??b??bbb??b??bbb??R??j
$GPGSV,2,2,07,21,,,30,29,,,35,36,,,29*7D
$BDGSV,2,1,05,06,,,31,08,,,31,13,,,34,19,,,36*68
$BDGSV,2,2,05,20,,,36*6A
$GNRMC,072115.187,V,,,,,,,290918,,,M*55
$GNVTG,,,,,,,,,M*2D
$GNZDA,072115.187,29,09,2018,00,00*4F
$GPTXT,01,01,01,ANTENNA OK*35
	?bbb??b??bbb??b??bbb??b??bbb??R??j
$GPGSV,2,2,07,21,,,30,29,,,33,36,,,29*7B
$BDGSV,2,1,05,06,,,31,08,,,31,13,,,34,19,,,35*6B
$BDGSV,2,2,05,20,,,36*6A
$GNRMC,072116.187,V,,,,,,,290918,,,M*56
$GNVTG,,,,,,,,,M*2D
$GNZDA,072116.187,29,09,2018,00,00*4C
$GPTXT,01,01,01,ANTENNA OK*35
K?b??bbb??b??bbb??b??bbb??b??bbb??R??j
$GPGSV,2,2,07,21,,,29,29,,,33,36,,,29*73
$BDGSV,2,1,05,06,,,31,08,,,31,13,,,33,19,,,32*6B
$BDGSV,2,2,05,20,,,36*6A
$GNRMC,072117.187,V,,,,,,,290918,,,M*57
$GNVTG,,,,,,,,,M*2D
$GNZDA,072117.187,29,09,2018,00,00*4D
$GPTXT,01,01,01,ANTENNA OK*35
1,07,05,,,30,13,,,27,15,,,34,20,,,28*77
$GPGSV,2,2,07,21,,,29,29,,,33,36,,,27*7D
$BDGSV,2,1,05,06,,,31,08,,,31,13,,,33,19,,,32*6B
$BDGSV,2,2,05,20,,,36*6A
$GNRMC,072118.187,V,,,,,,,290918,,,M*58
$GNVTG,,,,,,,,,M*2D
$GNZDA,072118.187,29,09,2018,00,00*42
$GPTXT,01,01,01,ANTENNA OK*35
05,,,30,13,,,27,15,,,34,20,,,28*77
$GPGSV,2,2,07,21,,,29,29,,,32,36,,,27*7C
$BDGSV,2,1,05,06,,,31,08,,,33,13,,,33,19,,,32*69
$BDGSV,2,2,05,20,,,36*6A
$GNRMC,072119.187,V,,,,,,,290918,,,M*59
$GNVTG,,,,,,,,,M*2D
$GNZDA,072119.187,29,09,2018,00,00*43
$GPTXT,01,01,01,ANTENNA OK*35
	?bbb??b??bbb??b??bbb??b??bbb??R??j
$GPGSV,2,2,07,21,,,30,29,,,28,36,,,29*71
$BDGSV,2,1,05,06,,,33,08,,,33,13,,,33,19,,,32*6B
$BDGSV,2,2,05,20,,,34*68
$GNRMC,072120.187,V,,,,,,,290918,,,M*53
$GNVTG,,,,,,,,,M*2D
$GNZDA,072120.187,29,09,2018,00,00*49
$GPTXT,01,01,01,ANTENNA OK*35
	?b??bbb??b??bbb??b??bbb??b??bbb??R??j
$GPGSV,2,2,07,21,,,30,29,,,28,36,,,29*71
$BDGSV,2,1,05,06,,,33,08,,,33,13,,,33,19,,,32*6B
$BDGSV,2,2,05,20,,,22*6F
$GNRMC,072121.187,V,,,,,,,290918,,,M*52
$GNVTG,,,,,,,,,M*2D
$GNZDA,072121.187,29,09,2018,00,00*48
$GPTXT,01,01,01,ANTENNA OK*35
	?b??bbb??b??bbb??b??bbb??b??bbb??R??j
$GPGSV,2,2,07,21,,,32,29,,,28,36,,,29*73
$BDGSV,2,1,05,06,,,33,08,,,32,13,,,33,19,,,34*6C
$BDGSV,2,2,05,20,,,27*6A
$GNRMC,072122.187,V,,,,,,,290918,,,M*51
$GNVTG,,,,,,,,,M*2D
$GNZDA,072122.187,29,09,2018,00,00*4B
$GPTXT,01,01,01,ANTENNA OK*35
	?bbb??b??bbb??b??bbb??b??bbb??R?*5
$GPGSV,2,2,07,21,,,32,29,,,28,36,,,29*73
$BDGSV,2,1,05,06,,,33,08,,,30,13,,,33,19,,,34*6E
$BDGSV,2,2,05,20,,,27*6A
$GNRMC,072123.187,V,,,,,,,290918,,,M*50
$GNVTG,,,,,,,,,M*2D
$GNZDA,072123.187,29,09,2018,00,00*4A
$GPTXT,01,01,01,ANTENNA OK*35
?	?bbb??b??bbb??b??bbb??b??bbb??R??j
$GPGSV,2,2,07,21,,,30,29,,,28,36,,,29*71
$BDGSV,2,1,05,06,,,32,08,,,30,13,,,33,19,,,34*6F
$BDGSV,2,2,05,20,,,24*69
$GNRMC,072124.187,V,,,,,,,290918,,,M*57
$GNVTG,,,,,,,,,M*2D
$GNZDA,072124.187,29,09,2018,00,00*4D
$GPTXT,01,01,01,ANTENNA OK*35
??	?bbb??b??bbb??b??bbb??b??bbb??R??j
$GPGSV,2,2,07,21,,,30,29,,,28,36,,,29*71
$BDGSV,2,1,05,06,,,32,08,,,30,13,,,33,19,,,34*6F
$BDGSV,2,2,05,20,,,24*69
$GNRMC,072125.187,V,,,,,,,290918,,,M*56
$GNVTG,,,,,,,,,M*2D
$GNZDA,072125.187,29,09,2018,00,00*4C
$GPTXT,01,01,01,ANTENNA OK*35
	?b??bbb??b??bbb??b??bbb??b??bbb??R??j
$GPGSV,2,2,07,21,,,31,29,,,27,36,,,29*7F
$BDGSV,2,1,05,06,,,32,08,,,30,13,,,33,19,,,33*68
$BDGSV,2,2,05,20,,,24*69
$GNRMC,072126.187,V,,,,,,,290918,,,M*55
$GNVTG,,,,,,,,,M*2D
$GNZDA,072126.187,29,09,2018,00,00*4F
$GPTXT,01,01,01,ANTENNA OK*35
	?bbb??b??bbb??b??bbb??b??bbb??R??j
$GPGSV,2,2,07,21,,,31,29,,,27,36,,,29*7F
$BDGSV,2,1,05,06,,,32,08,,,30,13,,,33,19,,,36*6D
$BDGSV,2,2,05,20,,,24*69
$GNRMC,072127.187,V,,,,,,,290918,,,M*54
$GNVTG,,,,,,,,,M*2D
$GNZDA,072127.187,29,09,2018,00,00*4E
$GPTXT,01,01,01,ANTENNA OK*35
??b??bbb??b??bbb??b??bbb??b??bbb??R?
5
$GPGSV,2,2,07,21,,,31,29,,,28,36,,,29*70
$BDGSV,2,1,05,06,,,32,08,,,30,13,,,32,19,,,36*6C
$BDGSV,2,2,05,20,,,26*6B
$GNRMC,072128.187,V,,,,,,,290918,,,M*5B
$GNVTG,,,,,,,,,M*2D
$GNZDA,072128.187,29,09,2018,00,00*41
$GPTXT,01,01,01,ANTENNA OK*35
?	?bbb??b??bbb??b??bbb??b??bbb??R??j
$GPGSV,2,2,07,21,,,31,29,,,28,36,,,29*70
$BDGSV,2,1,05,06,,,32,08,,,32,13,,,34,19,,,35*6B
$BDGSV,2,2,05,20,,,26*6B
$GNRMC,072129.187,V,,,,,,,290918,,,M*5A
$GNVTG,,,,,,,,,M*2D
$GNZDA,072129.187,29,09,2018,00,00*40
$GPTXT,01,01,01,ANTENNA OK*35
,,,,,25.5,25.5,25.5*13
$GPGSV,2,1,07,05,,,27,13,,,24,15,,,35,20,,,29*72
$GPGSV,2,2,07,21,,,31,29,,,30,36,,,29*79
$BDGSV,2,1,05,06,,,32,08,,,32,13,,,34,19,,,30*6E
$BDGSV,2,2,05,20,,,26*6B
$GNRMC,072130.187,V,,,,,,,290918,,,M*52
$GNVTG,,,,,,,,,M*2D
$GNZDA,072130.187,29,09,2018,00,00*48
$GPTXT,01,01,01,ANTENNA OK*35
B??bbb??b??bbb??b??bbb??b??bbb??R?5
$GPGSV,2,2,07,21,,,31,29,,,30,36,,,29*79
$BDGSV,2,1,05,06,,,32,08,,,32,13,,,33,19,,,30*69
$BDGSV,2,2,05,20,,,26*6B
$GNRMC,072131.187,V,,,,,,,290918,,,M*53
$GNVTG,,,,,,,,,M*2D
$GNZDA,072131.187,29,09,2018,00,00*49
$GPTXT,01,01,01,ANTENNA OK*35
?b??bbb??b??bbb??b??bbb??b??bbb??R??j
$GPGSV,2,2,07,21,,,31,29,,,30,36,,,29*79
$BDGSV,2,1,06,03,,,36,06,,,32,08,,,32,13,,,33*67
$BDGSV,2,2,06,19,,,35,20,,,26*66
$GNRMC,072132.187,V,,,,,,,290918,,,M*50
$GNVTG,,,,,,,,,M*2D
$GNZDA,072132.187,29,09,2018,00,00*4A
$GPTXT,01,01,01,ANTENNA OK*35
2,1,08,05,,,27,13,,,24,15,,,36,20,,,30*76
$GPGSV,2,2,08,21,,,31,29,,,30,34,,,20,36,,,29*73
$BDGSV,2,1,06,03,,,36,06,,,32,08,,,32,13,,,33*67
$BDGSV,2,2,06,19,,,35,20,,,26*66
$GNRMC,072133.187,V,,,,,,,290918,,,M*51
$GNVTG,,,,,,,,,M*2D
$GNZDA,072133.187,29,09,2018,00,00*4B
$GPTXT,01,01,01,ANTENNA OK*35
&I?bbb??R??j
$GPGSV,2,2,08,21,,,32,29,,,30,34,,,20,36,,,30*78
$BDGSV,2,1,07,03,,,36,06,,,32,08,,,34,12,,,35*67
$BDGSV,2,2,07,13,,,33,19,,,35,20,,,26*65
$GNRMC,072134.187,V,,,,,,,290918,,,M*56
$GNVTG,,,,,,,,,M*2D
$GNZDA,072134.187,29,09,2018,00,00*4C
$GPTXT,01,01,01,ANTENNA OK*35
,,27*76
$GPGSV,2,2,08,21,,,32,29,,,29,34,,,22,36,,,30*72
$BDGSV,2,1,07,03,,,36,06,,,32,08,,,34,12,,,33*61
$BDGSV,2,2,07,13,,,32,19,,,35,20,,,27*65
$GNRMC,072135.187,V,,,,,,,290918,,,M*57
$GNVTG,,,,,,,,,M*2D
$GNZDA,072135.187,29,09,2018,00,00*4D
$GPTXT,01,01,01,ANTENNA OK*35
I?bbb??R?5
$GPGSV,2,2,08,21,,,32,29,,,24,34,,,22,36,,,30*7F
$BDGSV,2,1,07,03,,,36,06,,,32,08,,,32,12,,,33*67
$BDGSV,2,2,07,13,,,32,19,,,35,20,,,27*65
$GNRMC,072136.187,V,,,,,,,290918,,,M*54
$GNVTG,,,,,,,,,M*2D
$GNZDA,072136.187,29,09,2018,00,00*4E
$GPTXT,01,01,01,ANTENNA OK*35
bbb??b??bbb??R??j
$GPGSV,2,2,08,21,,,31,29,,,24,34,,,22,36,,,29*74
$BDGSV,2,1,07,03,,,36,06,,,32,08,,,32,12,,,35*61
$BDGSV,2,2,07,13,,,32,19,,,35,20,,,27*65
$GNRMC,072137.187,V,,,,,,,290918,,,M*55
$GNVTG,,,,,,,,,M*2D
$GNZDA,072137.187,29,09,2018,00,00*4F
$GPTXT,01,01,01,ANTENNA OK*35
?i?b??bbb??R??j
$GPGSV,2,2,08,21,,,31,29,,,26,34,,,22,36,,,29*76
$BDGSV,2,1,07,03,,,36,06,,,31,08,,,30,12,,,35*60
$BDGSV,2,2,07,13,,,33,19,,,33,20,,,24*61
$GNRMC,072138.187,V,,,,,,,290918,,,M*5A
$GNVTG,,,,,,,,,M*2D
$GNZDA,072138.187,29,09,2018,00,00*40
$GPTXT,01,01,01,ANTENNA OK*35
??i?b??bbb??R??j
$GPGSV,2,2,08,21,,,27,29,,,29,34,,,22,36,,,29*7E
$BDGSV,2,1,07,03,,,36,06,,,31,08,,,30,12,,,35*60
$BDGSV,2,2,07,13,,,33,19,,,31,20,,,24*63
$GNRMC,072139.187,V,,,,,,,290918,,,M*5B
$GNVTG,,,,,,,,,M*2D
$GNZDA,072139.187,29,09,2018,00,00*41
$GPTXT,01,01,01,ANTENNA OK*35
$GNGGA,072140.187,,,,,0,00,25.5,,,,,,*74
$GNGLL,,,,,072140.187,V,M*69
$GPGSA,A,1,,,,,,,,,,,,,25.5,25.5,25.5*02
$BDGSA,A,1,,,,,,,,,,,,,25.5,25.5,25.5*13
$GPGSV,2,1,08,05,,,26,13,,,22,15,,,35,20,,,27*74
$GPGSV,2,2,08,21,,,29,29,,,29,34,,,24,36,,,27*78
$BDGSV,2,1,07,03,,,36,06,,,31,08,,,34,12,,,35*64
$BDGSV,2,2,07,13,,,33,19,,,31,20,,,24*63
$GNRMC,072140.187,V,,,,,,,290918,,,M*55
$GNVTG,,,,,,,,,M*2D
$GNZDA,072140.187,29,09,2018,00,00*4F
$GPTXT,01,01,01,ANTENNA OK*35
,,35,20,,,27*74
$GPGSV,2,2,08,21,,,32,29,,,29,34,,,24,36,,,30*74
$BDGSV,2,1,07,03,,,36,06,,,31,08,,,34,12,,,35*64
$BDGSV,2,2,07,13,,,33,19,,,31,20,,,24*63
$GNRMC,072141.187,V,,,,,,,290918,,,M*54
$GNVTG,,,,,,,,,M*2D
$GNZDA,072141.187,29,09,2018,00,00*4E
$GPTXT,01,01,01,ANTENNA OK*35
$GNGGA,072142.187,,,,,0,00,25.5,,,,,,*76
$GNGLL,,,,,072142.187,V,M*6B
$GPGSA,A,1,,,,,,,,,,,,,25.5,25.5,25.5*02
$BDGSA,A,1,,,,,,,,,,,,,25.5,25.5,25.5*13
$GPGSV,2,1,08,05,,,26,13,,,22,15,,,36,20,,,27*77
$GPGSV,2,2,08,21,,,32,29,,,29,34,,,24,36,,,30*74
$BDGSV,2,1,07,03,,,36,06,,,32,08,,,32,12,,,35*61
$BDGSV,2,2,07,13,,,32,19,,,32,20,,,24*61
$GNRMC,072142.187,V,,,,,,,290918,,,M*57
$GNVTG,,,,,,,,,M*2D
$GNZDA,072142.187,29,09,2018,00,00*4D
$GPTXT,01,01,01,ANTENNA OK*35
?bbb??R??j
$GPGSV,2,2,08,21,,,32,29,,,27,34,,,24,36,,,30*7A
$BDGSV,2,1,07,03,,,36,06,,,32,08,,,32,12,,,35*61
$BDGSV,2,2,07,13,,,32,19,,,32,20,,,25*60
$GNRMC,072143.187,V,,,,,,,290918,,,M*56
$GNVTG,,,,,,,,,M*2D
$GNZDA,072143.187,29,09,2018,00,00*4C
$GPTXT,01,01,01,ANTENNA OK*35
20,,,27*76
$GPGSV,2,2,08,21,,,32,29,,,27,34,,,21,36,,,30*7F
$BDGSV,2,1,07,03,,,36,06,,,32,08,,,32,12,,,35*61
$BDGSV,2,2,07,13,,,32,19,,,33,20,,,25*61
$GNRMC,072144.187,V,,,,,,,290918,,,M*51
$GNVTG,,,,,,,,,M*2D
$GNZDA,072144.187,29,09,2018,00,00*4B
$GPTXT,01,01,01,ANTENNA OK*35
15,,,35,20,,,27*7A
$GPGSV,2,2,07,21,,,31,29,,,27,36,,,30*77
$BDGSV,2,1,07,03,,,36,06,,,32,08,,,33,12,,,35*60
$BDGSV,2,2,07,13,,,32,19,,,33,20,,,29*6D
$GNRMC,072145.187,V,,,,,,,290918,,,M*50
$GNVTG,,,,,,,,,M*2D
$GNZDA,072145.187,29,09,2018,00,00*4A
$GPTXT,01,01,01,ANTENNA OK*35
,35,20,,,27*7A
$GPGSV,2,2,07,21,,,31,29,,,27,36,,,29*7F
$BDGSV,2,1,07,03,,,36,06,,,31,08,,,33,12,,,34*62
$BDGSV,2,2,07,13,,,32,19,,,35,20,,,26*64
$GNRMC,072146.187,V,,,,,,,290918,,,M*53
$GNVTG,,,,,,,,,M*2D
$GNZDA,072146.187,29,09,2018,00,00*49
$GPTXT,01,01,01,ANTENNA OK*35
b??bbb??b??bbb??R??j
$GPGSV,2,2,08,21,,,33,29,,,27,34,,,21,36,,,29*76
$BDGSV,2,1,07,03,,,36,06,,,31,08,,,33,12,,,34*62
$BDGSV,2,2,07,13,,,32,19,,,32,20,,,26*63
$GNRMC,072147.187,V,,,,,,,290918,,,M*52
$GNVTG,,,,,,,,,M*2D
$GNZDA,072147.187,29,09,2018,00,00*48
$GPTXT,01,01,01,ANTENNA OK*35
bb??b??bbb??R??j
$GPGSV,2,2,08,21,,,31,29,,,27,34,,,21,36,,,29*74
$BDGSV,2,1,07,03,,,36,06,,,31,08,,,32,12,,,32*65
$BDGSV,2,2,07,13,,,33,19,,,32,20,,,28*6C
$GNRMC,072148.187,V,,,,,,,290918,,,M*5D
$GNVTG,,,,,,,,,M*2D
$GNZDA,072148.187,29,09,2018,00,00*47
$GPTXT,01,01,01,ANTENNA OK*35
?b??bbb??R??j
$GPGSV,2,2,08,21,,,31,29,,,27,34,,,21,36,,,29*74
$BDGSV,2,1,07,03,,,36,06,,,32,08,,,32,12,,,32*66
$BDGSV,2,2,07,13,,,36,19,,,33,20,,,33*62
$GNRMC,072149.187,V,,,,,,,290918,,,M*5C
$GNVTG,,,,,,,,,M*2D
$GNZDA,072149.187,29,09,2018,00,00*46
$GPTXT,01,01,01,ANTENNA OK*35
&bbb??R?
5
$GPGSV,2,2,08,21,,,32,29,,,33,34,,,21,36,,,29*72
$BDGSV,2,1,07,03,,,36,06,,,32,08,,,33,12,,,32*67
$BDGSV,2,2,07,13,,,36,19,,,30,20,,,27*64
$GNRMC,072150.187,V,,,,,,,290918,,,M*54
$GNVTG,,,,,,,,,M*2D
$GNZDA,072150.187,29,09,2018,00,00*4E
$GPTXT,01,01,01,ANTENNA OK*35
?b??bbb??R??j
$GPGSV,2,2,08,21,,,32,29,,,35,34,,,21,36,,,29*74
$BDGSV,2,1,07,03,,,36,06,,,32,08,,,35,12,,,31*62
$BDGSV,2,2,07,13,,,37,19,,,30,20,,,34*67
$GNRMC,072151.187,V,,,,,,,290918,,,M*55
$GNVTG,,,,,,,,,M*2D
$GNZDA,072151.187,29,09,2018,00,00*4F
$GPTXT,01,01,01,ANTENNA OK*35
?I?b??bbb??R??j
$GPGSV,2,2,08,21,,,32,29,,,37,34,,,22,36,,,28*74
$BDGSV,2,1,07,03,,,36,06,,,32,08,,,35,12,,,31*62
$BDGSV,2,2,07,13,,,37,19,,,26,20,,,32*66
$GNRMC,072152.187,V,,,,,,,290918,,,M*56
$GNVTG,,,,,,,,,M*2D
$GNZDA,072152.187,29,09,2018,00,00*4C
$GPTXT,01,01,01,ANTENNA OK*35
LM??i?b??bbb??R??j
$GPGSV,2,2,08,21,,,30,29,,,37,34,,,22,36,,,28*76
$BDGSV,2,1,07,03,,,36,06,,,33,08,,,32,12,,,27*63
$BDGSV,2,2,07,13,,,37,19,,,29,20,,,21*6B
$GNRMC,072153.187,V,,,,,,,290918,,,M*57
$GNVTG,,,,,,,,,M*2D
$GNZDA,072153.187,29,09,2018,00,00*4D
$GPTXT,01,01,01,ANTENNA OK*35
bbb??b??bbb??R??j
$GPGSV,2,2,08,21,,,30,29,,,37,34,,,27,36,,,22*79
$BDGSV,2,1,07,03,,,36,06,,,36,08,,,31,12,,,27*65
$BDGSV,2,2,07,13,,,37,19,,,32,20,,,30*61
$GNRMC,072154.187,V,,,,,,,290918,,,M*50
$GNVTG,,,,,,,,,M*2D
$GNZDA,072154.187,29,09,2018,00,00*4A
$GPTXT,01,01,01,ANTENNA OK*35
$GNGGA,072155.187,,,,,0,00,25.5,,,,,,*70
$GNGLL,,,,,072155.187,V,M*6D
$GPGSA,A,1,,,,,,,,,,,,,25.5,25.5,25.5*02
$BDGSA,A,1,,,,,,,,,,,,,25.5,25.5,25.5*13
$GPGSV,3,1,09,02,,,28,05,,,30,13,,,30,15,,,35*7F
$GPGSV,3,2,09,20,,,25,21,,,28,29,,,32,34,,,27*75
$GPGSV,3,3,09,36,,,22*75
$BDGSV,2,1,07,03,,,36,06,,,36,08,,,31,12,,,27*65
$BDGSV,2,2,07,13,,,37,19,,,34,20,,,30*67
$GNRMC,072155.187,V,,,,,,,290918,,,M*51
$GNVTG,,,,,,,,,M*2D
$GNZDA,072155.187,29,09,2018,00,00*4B
$GPTXT,01,01,01,ANTENNA OK*35
$GNGGA,072156.187,,,,,0,00,25.5,,,,,,*73
$GNGLL,,,,,072156.187,V,M*6E
$GPGSA,A,1,,,,,,,,,,,,,25.5,25.5,25.5*02
$BDGSA,A,1,,,,,,,,,,,,,25.5,25.5,25.5*13
$GPGSV,3,1,09,02,,,24,05,,,30,13,,,30,15,,,35*73
$GPGSV,3,2,09,20,,,25,21,,,28,29,,,32,34,,,27*75
$GPGSV,3,3,09,36,,,22*75
$BDGSV,2,1,07,03,,,36,06,,,36,08,,,31,12,,,19*68
$BDGSV,2,2,07,13,,,36,19,,,34,20,,,31*67
$GNRMC,072156.187,V,,,,,,,290918,,,M*52
$GNVTG,,,,,,,,,M*2D
$GNZDA,072156.187,29,09,2018,00,00*48
$GPTXT,01,01,01,ANTENNA OK*35
$GNGGA,072157.187,,,,,0,00,25.5,,,,,,*72
$GNGLL,,,,,072157.187,V,M*6F
$GPGSA,A,1,,,,,,,,,,,,,25.5,25.5,25.5*02
$BDGSA,A,1,,,,,,,,,,,,,25.5,25.5,25.5*13
$GPGSV,3,1,09,02,,,24,05,,,31,13,,,31,15,,,35*73
$GPGSV,3,2,09,20,,,25,21,,,23,29,,,30,34,,,18*70
$GPGSV,3,3,09,36,,,22*75
$BDGSV,2,1,07,03,,,36,06,,,36,08,,,29,12,,,19*61
$BDGSV,2,2,07,13,,,36,19,,,31,20,,,31*62
$GNRMC,072157.187,V,,,,,,,290918,,,M*53
$GNVTG,,,,,,,,,M*2D
$GNZDA,072157.187,29,09,2018,00,00*49
$GPTXT,01,01,01,ANTENNA OK*35
$GNGGA,072158.187,,,,,0,00,25.5,,,,,,*7D
$GNGLL,,,,,072158.187,V,M*60
$GPGSA,A,1,,,,,,,,,,,,,25.5,25.5,25.5*02
$BDGSA,A,1,,,,,,,,,,,,,25.5,25.5,25.5*13
$GPGSV,3,1,09,02,,,24,05,,,33,13,,,33,15,,,34*72
$GPGSV,3,2,09,20,,,25,21,,,26,29,,,33,34,,,18*76
$GPGSV,3,3,09,36,,,22*75
$BDGSV,2,1,07,03,,,36,06,,,36,08,,,29,12,,,19*61
$BDGSV,2,2,07,13,,,37,19,,,31,20,,,29*6A
$GNRMC,072158.187,V,,,,,,,290918,,,M*5C
$GNVTG,,,,,,,,,M*2D
$GNZDA,072158.187,29,09,2018,00,00*46
$GPTXT,01,01,01,ANTENNA OK*35
$GNGGA,072159.187,,,,,0,00,25.5,,,,,,*7C
$GNGLL,,,,,072159.187,V,M*61
$GPGSA,A,1,,,,,,,,,,,,,25.5,25.5,25.5*02
$BDGSA,A,1,,,,,,,,,,,,,25.5,25.5,25.5*13
$GPGSV,3,1,09,02,,,24,05,,,33,13,,,33,15,,,28*7F
$GPGSV,3,2,09,20,,,25,21,,,26,29,,,33,34,,,18*76
$GPGSV,3,3,09,36,,,22*75
$BDGSV,2,1,07,03,,,36,06,,,36,08,,,30,12,,,19*69
$BDGSV,2,2,07,13,,,37,19,,,32,20,,,29*69
$GNRMC,072159.187,V,,,,,,,290918,,,M*5D
$GNVTG,,,,,,,,,M*2D
$GNZDA,072159.187,29,09,2018,00,00*47
$GPTXT,01,01,01,ANTENNA OK*35
2Fbbbbbbbbbb?r?b?r?b?r?R?5
$BDGSA,A,3,06,08,13,,,,,,,,,,4.6,3.3,3.3*2D
$GPGSV,3,1,11,02,,,24,05,32,058,33,13,58,051,34,15,77,223,28*47
$GPGSV,3,2,11,20,15,281,23,21,32,317,26,24,18,163,,29,51,234,33*76
$GPGSV,3,3,11,30,05,044,,34,,,18,36,,,22*44
$BDGSV,2,1,07,03,,,36,06,82,357,36,08,56,136,33,12,,,19*66
$BDGSV,2,2,07,13,85,128,37,19,,,36,20,,,21*53
$GNRMC,072200.185,A,3032.2494,N,10412.5561,E,8.56,232.78,290918,,,E*7B
$GNVTG,232.78,T,,M,8.56,N,15.86,K,E*1A
$GNZDA,072200.185,29,09,2018,00,00*4A
$GPTXT,01,01,01,ANTENNA OK*35
??	?b??b??bbbbbbbbbb?r?b?r?b?r?R?"5
$GPGSV,3,1,11,02,,,24,05,32,058,33,13,58,051,34,15,77,223,30*4E
$GPGSV,3,2,11,20,15,281,23,21,32,317,24,24,18,163,,29,51,234,33*74
$GPGSV,3,3,11,30,05,044,,34,,,18,36,,,22*44
$BDGSV,2,1,07,03,,,36,06,82,357,36,08,56,136,33,12,,,19*66
$BDGSV,2,2,07,13,85,128,37,19,,,37,20,,,21*52
$GNRMC,072201.000,A,3032.2480,N,10412.5538,E,8.59,232.68,290918,,,A*75
$GNVTG,232.68,T,,M,8.59,N,15.90,K,A*17
$GNZDA,072201.000,29,09,2018,00,00*47
$GPTXT,01,01,01,ANTENNA OK*35
00,A,A*48
$GPGSA,A,3,29,15,21,,,,,,,,,,4.6,3.3,3.3*3C
$BDGSA,A,3,06,08,13,,,,,,,,,,4.6,3.3,3.3*2D
$GPGSV,3,1,11,02,,,24,05,32,058,33,13,58,051,34,15,77,223,33*4D
$GPGSV,3,2,11,20,15,281,23,21,32,317,24,24,18,163,,29,51,234,33*74
$GPGSV,3,3,11,30,05,044,,34,,,18,36,,,22*44
$BDGSV,2,1,07,03,,,32,06,82,357,36,08,56,136,31,12,,,19*60
$BDGSV,2,2,07,13,85,128,37,19,,,37,20,,,24*57
$GNRMC,072202.000,A,3032.2449,N,10412.5514,E,8.40,232.53,290918,,,A*7D
$GNVTG,232.53,T,,M,8.40,N,15.56,K,A*1D
$GNZDA,072202.000,29,09,2018,00,00*44
$GPTXT,01,01,01,ANTENNA OK*35
,A,3,06,08,13,,,,,,,,,,4.6,3.3,3.3*2D
$GPGSV,3,1,11,02,,,22,05,32,058,33,13,58,051,34,15,77,223,33*4B
$GPGSV,3,2,11,20,15,281,23,21,32,317,24,24,18,163,,29,51,234,33*74
$GPGSV,3,3,11,30,05,044,,34,,,18,36,,,22*44
$BDGSV,2,1,07,03,,,32,06,82,357,35,08,56,136,26,12,,,19*65
$BDGSV,2,2,07,13,85,128,37,19,,,37,20,,,24*57
$GNRMC,072203.000,A,3032.2425,N,10412.5487,E,8.38,232.21,290918,,,A*77
$GNVTG,232.21,T,,M,8.38,N,15.52,K,A*13
$GNZDA,072203.000,29,09,2018,00,00*45
$GPTXT,01,01,01,ANTENNA OK*35
?5
$BDGSA,A,3,06,08,13,,,,,,,,,,4.6,3.3,3.3*2D
$GPGSV,3,1,11,02,,,22,05,32,058,33,13,58,051,34,15,77,223,33*4B
$GPGSV,3,2,11,20,15,281,19,21,32,317,24,24,18,163,,29,51,234,33*7D
$GPGSV,3,3,11,30,05,044,,34,,,18,36,,,21*47
$BDGSV,2,1,07,03,,,32,06,82,357,35,08,56,136,26,12,,,19*65
$BDGSV,2,2,07,13,85,128,37,19,,,37,20,,,24*57
$GNRMC,072204.000,A,3032.2403,N,10412.5457,E,8.13,231.91,290918,,,A*78
$GNVTG,231.91,T,,M,8.13,N,15.06,K,A*13
$GNZDA,072204.000,29,09,2018,00,00*42
$GPTXT,01,01,01,ANTENNA OK*35
?r?b?r?b?r?R?5
$BDGSA,A,3,06,08,13,,,,,,,,,,4.6,3.3,3.3*2D
$GPGSV,3,1,11,02,,,22,05,32,058,32,13,58,051,34,15,77,223,33*4A
$GPGSV,3,2,11,20,15,281,19,21,32,317,24,24,18,163,,29,51,234,32*7C
$GPGSV,3,3,11,30,05,044,,34,,,19,36,,,21*46
$BDGSV,2,1,07,03,,,32,06,82,357,35,08,56,136,26,12,,,19*65
$BDGSV,2,2,07,13,85,129,37,19,,,36,20,,,24*57
$GNRMC,072205.000,A,3032.2384,N,10412.5430,E,7.40,231.67,290918,,,A*70
$GNVTG,231.67,T,,M,7.40,N,13.71,K,A*15
$GNZDA,072205.000,29,09,2018,00,00*43
$GPTXT,01,01,01,ANTENNA OK*35
?),3,06,08,13,,,,,,,,,,4.6,3.3,3.3*2D
$GPGSV,3,1,11,02,,,22,05,32,058,32,13,58,051,34,15,77,223,33*4A
$GPGSV,3,2,11,20,15,281,19,21,32,317,24,24,18,163,,29,51,234,32*7C
$GPGSV,3,3,11,30,05,044,,34,,,19,36,,,21*46
$BDGSV,2,1,07,03,,,32,06,82,357,35,08,56,136,26,12,,,19*65
$BDGSV,2,2,07,13,85,129,37,19,,,36,20,,,24*57
$GNRMC,072206.000,A,3032.2366,N,10412.5405,E,7.31,231.49,290918,,,A*73
$GNVTG,231.49,T,,M,7.31,N,13.54,K,A*18
$GNZDA,072206.000,29,09,2018,00,00*40
$GPTXT,01,01,01,ANTENNA OK*35
3.3*3C
$BDGSA,A,3,06,08,13,,,,,,,,,,4.6,3.3,3.3*2D
$GPGSV,3,1,11,02,,,22,05,32,058,31,13,58,051,34,15,77,223,33*49
$GPGSV,3,2,11,20,15,281,19,21,32,317,25,24,18,163,,29,51,234,32*7D
$GPGSV,3,3,11,30,05,044,,34,,,19,36,,,21*46
$BDGSV,2,1,07,03,,,32,06,82,357,34,08,56,136,28,12,,,19*6A
$BDGSV,2,2,07,13,85,129,37,19,,,36,20,,,24*57
$GNRMC,072207.000,A,3032.2350,N,10412.5381,E,7.16,231.24,290918,,,A*72
$GNVTG,231.24,T,,M,7.16,N,13.25,K,A*10
$GNZDA,072207.000,29,09,2018,00,00*41
$GPTXT,01,01,01,ANTENNA OK*35
,13,,,,,,,,,,4.6,3.3,3.3*2D
$GPGSV,3,1,11,02,,,22,05,32,058,31,13,58,051,33,15,77,223,33*4E
$GPGSV,3,2,11,20,15,281,19,21,32,317,25,24,18,163,,29,51,234,32*7D
$GPGSV,3,3,11,30,05,044,,34,,,19,36,,,21*46
$BDGSV,2,1,07,03,,,27,06,82,357,34,08,56,136,31,12,,,19*66
$BDGSV,2,2,07,13,85,129,37,19,,,35,20,,,24*54
$GNRMC,072208.000,A,3032.2333,N,10412.5359,E,7.31,230.88,290918,,,A*7F
$GNVTG,230.88,T,,M,7.31,N,13.54,K,A*14
$GNZDA,072208.000,29,09,2018,00,00*4E
$GPTXT,01,01,01,ANTENNA OK*35
BDGSA,A,3,06,08,13,,,,,,,,,,4.6,3.3,3.3*2D
$GPGSV,3,1,11,02,,,22,05,32,058,32,13,58,051,33,15,77,223,33*4D
$GPGSV,3,2,11,20,15,281,19,21,32,317,25,24,18,163,,29,51,234,31*7E
$GPGSV,3,3,11,30,05,044,,34,,,19,36,,,21*46
$BDGSV,2,1,07,03,,,27,06,82,357,35,08,56,136,31,12,,,19*67
$BDGSV,2,2,07,13,85,129,37,19,,,35,20,,,24*54
$GNRMC,072209.000,A,3032.2320,N,10412.5339,E,6.51,230.82,290918,,,A*77
$GNVTG,230.82,T,,M,6.51,N,12.05,K,A*1C
$GNZDA,072209.000,29,09,2018,00,00*4F
$GPTXT,01,01,01,ANTENNA OK*35
?r?b?r?b?r?R?5
$BDGSA,A,3,06,08,13,,,,,,,,,,4.6,3.3,3.3*2D
$GPGSV,3,1,11,02,,,20,05,32,058,32,13,58,051,33,15,77,223,32*4E
$GPGSV,3,2,11,20,15,281,19,21,32,317,27,24,18,163,,29,51,234,33*7E
$GPGSV,3,3,11,30,05,044,,34,,,19,36,,,21*46
$BDGSV,2,1,08,03,,,27,06,82,357,35,08,56,136,29,09,,,23*62
$BDGSV,2,2,08,12,,,18,13,85,129,37,19,,,36,20,,,24*52
$GNRMC,072210.000,A,3032.2308,N,10412.5320,E,5.90,230.80,290918,,,A*71
$GNVTG,230.80,T,,M,5.90,N,10.93,K,A*1D
$GNZDA,072210.000,29,09,2018,00,00*47
$GPTXT,01,01,01,ANTENNA OK*35
?	?b??bbbbbbbbbb?r?b?r?b?r?R?"5
$GPGSV,3,1,11,02,,,20,05,32,058,32,13,58,051,34,15,77,223,32*49
$GPGSV,3,2,11,20,15,281,16,21,32,317,27,24,18,163,,29,51,234,33*71
$GPGSV,3,3,11,30,05,044,,34,,,19,36,,,21*46
$BDGSV,2,1,08,03,,,27,06,82,357,36,08,56,136,31,09,,,23*68
$BDGSV,2,2,08,12,,,18,13,85,129,37,19,,,37,20,,,24*53
$GNRMC,072211.000,A,3032.2291,N,10412.5296,E,6.06,230.77,290918,,,A*79
$GNVTG,230.77,T,,M,6.06,N,11.22,K,A*12
$GNZDA,072211.000,29,09,2018,00,00*46
$GPTXT,01,01,01,ANTENNA OK*35
$GNGGA,072212.000,3032.2279,N,10412.5281,E,1,06,3.3,473.2,M,0.0,M,,*76
$GNGLL,3032.2279,N,10412.5281,E,072212.000,A,A*47
$GPGSA,A,3,29,15,21,,,,,,,,,,4.6,3.3,3.3*3C
$BDGSA,A,3,06,08,13,,,,,,,,,,4.6,3.3,3.3*2D
$GPGSV,3,1,12,02,,,20,05,32,058,32,13,58,051,34,15,77,223,33*4B
$GPGSV,3,2,12,20,15,281,16,21,32,317,27,24,18,163,,29,51,234,33*72
$GPGSV,3,3,12,30,05,044,,31,00,250,21,34,,,19,36,,,21*73
$BDGSV,2,1,08,03,,,27,06,82,357,36,08,56,136,31,09,,,23*68
$BDGSV,2,2,08,12,,,18,13,85,129,37,19,,,37,20,,,24*53
$GNRMC,072212.000,A,3032.2279,N,10412.5281,E,5.98,230.70,290918,,,A*79
$GNVTG,230.70,T,,M,5.98,N,11.07,K,A*16
$GNZDA,072212.000,29,09,2018,00,00*45
$GPTXT,01,01,01,ANTENNA OK*35
$GNGGA,072213.000,3032.2270,N,10412.5271,E,1,06,3.3,473.2,M,0.0,M,,*71
$GNGLL,3032.2270,N,10412.5271,E,072213.000,A,A*40
$GPGSA,A,3,29,15,21,,,,,,,,,,4.6,3.3,3.3*3C
$BDGSA,A,3,06,08,13,,,,,,,,,,4.6,3.3,3.3*2D
$GPGSV,3,1,12,02,,,20,05,32,058,33,13,58,051,34,15,77,223,33*4A
$GPGSV,3,2,12,20,15,281,16,21,32,317,24,24,18,163,,29,51,234,33*71
$GPGSV,3,3,12,30,05,044,,31,00,250,21,34,,,19,36,,,21*73
$BDGSV,2,1,08,03,,,27,06,82,357,35,08,56,136,31,09,,,21*69
$BDGSV,2,2,08,12,,,18,13,85,129,37,19,,,38,20,,,24*5C
$GNRMC,072213.000,A,3032.2270,N,10412.5271,E,4.54,230.58,290918,,,A*75
$GNVTG,230.58,T,,M,4.54,N,8.42,K,A*24
$GNZDA,072213.000,29,09,2018,00,00*44
$GPTXT,01,01,01,ANTENNA OK*35
SH$GNGLL,3032.2262,N,10412.5263,E,072214.000,A,A*47
$GPGSA,A,3,29,15,21,,,,,,,,,,4.6,3.3,3.3*3C
$BDGSA,A,3,06,08,13,,,,,,,,,,4.6,3.3,3.3*2D
$GPGSV,3,1,12,02,,,20,05,32,058,33,13,58,051,33,15,77,223,33*4D
$GPGSV,3,2,12,20,15,281,16,21,32,317,28,24,18,163,,29,51,234,33*7D
$GPGSV,3,3,12,30,05,044,,31,00,250,21,34,,,19,36,,,21*73
$BDGSV,2,1,08,03,,,27,06,82,357,35,08,56,136,31,09,,,21*69
$BDGSV,2,2,08,12,,,18,13,85,129,36,19,,,38,20,,,24*5D
$GNRMC,072214.000,A,3032.2262,N,10412.5263,E,1.99,230.52,290918,,,A*7C
$GNVTG,230.52,T,,M,1.99,N,3.69,K,A*28
$GNZDA,072214.000,29,09,2018,00,00*43
$GPTXT,01,01,01,ANTENNA OK*35
?b*,072215.000,A,A*46
$GPGSA,A,3,29,15,21,,,,,,,,,,4.6,3.3,3.3*3C
$BDGSA,A,3,06,08,13,,,,,,,,,,4.6,3.3,3.3*2D
$GPGSV,3,1,12,02,,,20,05,32,058,33,13,58,051,33,15,77,223,33*4D
$GPGSV,3,2,12,20,15,281,16,21,32,317,28,24,18,163,,29,51,234,33*7D
$GPGSV,3,3,12,30,05,044,,31,00,250,21,34,,,19,36,,,21*73
$BDGSV,2,1,08,03,,,27,06,82,357,35,08,56,136,32,09,,,21*6A
$BDGSV,2,2,08,12,,,18,13,85,129,36,19,,,38,20,,,24*5D
$GNRMC,072215.000,A,3032.2257,N,10412.5256,E,2.63,230.52,290918,,,A*7B
$GNVTG,230.52,T,,M,2.63,N,4.86,K,A*28
$GNZDA,072215.000,29,09,2018,00,00*42
$GPTXT,01,01,01,ANTENNA OK*35
GSA,A,3,06,08,13,,,,,,,,,,4.6,3.3,3.3*2D
$GPGSV,3,1,12,02,,,20,05,32,058,33,13,58,051,33,15,77,223,32*4C
$GPGSV,3,2,12,20,15,281,16,21,32,317,28,24,18,163,,29,51,234,32*7C
$GPGSV,3,3,12,30,05,044,,31,00,250,20,34,,,19,36,,,21*72
$BDGSV,2,1,08,03,,,27,06,82,357,35,08,56,136,34,09,,,21*6C
$BDGSV,2,2,08,12,,,18,13,85,129,36,19,,,37,20,,,24*52
$GNRMC,072216.000,A,3032.2252,N,10412.5250,E,2.37,230.47,290918,,,A*7E
$GNVTG,230.47,T,,M,2.37,N,4.39,K,A*29
$GNZDA,072216.000,29,09,2018,00,00*41
$GPTXT,01,01,01,ANTENNA OK*35
$GNGGA,072217.000,3032.2245,N,10412.5242,E,1,06,3.3,473.0,M,0.0,M,,*71
$GNGLL,3032.2245,N,10412.5242,E,072217.000,A,A*42
$GPGSA,A,3,29,15,21,,,,,,,,,,4.6,3.3,3.3*3C
$BDGSA,A,3,06,08,13,,,,,,,,,,4.6,3.3,3.3*2D
$GPGSV,3,1,12,02,,,20,05,32,058,33,13,58,051,33,15,77,223,32*4C
$GPGSV,3,2,12,20,15,281,16,21,32,317,28,24,18,163,,29,51,234,32*7C
$GPGSV,3,3,12,30,05,044,,31,00,250,20,34,,,19,36,,,21*72
$BDGSV,2,1,08,03,,,27,06,82,357,34,08,56,136,34,09,,,21*6D
$BDGSV,2,2,08,12,,,20,13,85,129,36,19,,,37,20,,,24*59
$GNRMC,072217.000,A,3032.2245,N,10412.5242,E,1.40,230.38,290918,,,A*71
$GNVTG,230.38,T,,M,1.40,N,2.60,K,A*28
$GNZDA,072217.000,29,09,2018,00,00*40
$GPTXT,01,01,01,ANTENNA OK*35
,,,,,4.6,3.3,3.3*2D
$GPGSV,3,1,12,02,,,20,05,32,058,33,13,58,051,32,15,77,223,32*4D
$GPGSV,3,2,12,20,15,281,16,21,32,317,28,24,18,163,,29,51,234,33*7D
$GPGSV,3,3,12,30,05,044,,31,00,250,20,34,,,19,36,,,21*72
$BDGSV,2,1,08,03,,,27,06,82,357,36,08,56,136,34,09,,,21*6F
$BDGSV,2,2,08,12,,,27,13,85,129,36,19,,,37,20,,,25*5F
$GNRMC,072218.000,A,3032.2237,N,10412.5235,E,2.24,227.91,290918,,,A*7F
$GNVTG,227.91,T,,M,2.24,N,4.14,K,A*29
$GNZDA,072218.000,29,09,2018,00,00*4F
$GPTXT,01,01,01,ANTENNA OK*35
bbbbbbbbbb?r?b?r?b?r?R?"5
$GPGSV,3,1,12,02,,,20,05,32,058,33,13,58,051,34,15,77,223,32*4B
$GPGSV,3,2,12,20,15,281,16,21,32,317,28,24,18,163,,29,51,234,33*7D
$GPGSV,3,3,12,30,05,044,,31,00,250,20,34,,,19,36,,,21*72
$BDGSV,2,1,08,03,,,29,06,82,357,36,08,56,136,34,09,,,21*61
$BDGSV,2,2,08,12,,,27,13,85,129,37,19,,,37,20,,,27*5C
$GNRMC,072219.000,A,3032.2229,N,10412.5226,E,2.35,223.59,290918,,,A*73
$GNVTG,223.59,T,,M,2.35,N,4.35,K,A*2A
$GNZDA,072219.000,29,09,2018,00,00*4E
$GPTXT,01,01,01,ANTENNA OK*35
??????r?b?r?b?r?R?"5
$GPGSV,3,1,12,02,,,20,05,32,058,34,13,58,051,32,15,77,224,32*4D
$GPGSV,3,2,12,20,15,281,14,21,32,317,28,24,18,163,,29,51,234,32*7E
$GPGSV,3,3,12,30,05,044,,31,00,250,20,34,,,18,36,,,22*70
$BDGSV,2,1,08,03,,,29,06,82,357,36,08,56,136,34,09,,,22*62
$BDGSV,2,2,08,12,,,27,13,85,129,37,19,,,35,20,,,27*5E
$GNRMC,072220.000,A,3032.2224,N,10412.5221,E,2.09,217.12,290918,,,A*74
$GNVTG,217.12,T,,M,2.09,N,3.87,K,A*23
$GNZDA,072220.000,29,09,2018,00,00*44
$GPTXT,01,01,01,ANTENNA OK*35
&??????????r?b?r?b?r?R?"5
$GPGSV,3,1,11,02,,,20,05,32,058,34,13,58,051,32,15,77,224,32*4E
$GPGSV,3,2,11,20,15,281,14,21,32,317,28,24,18,163,,29,51,234,32*7D
$GPGSV,3,3,11,30,05,044,,34,,,18,36,,,22*44
$BDGSV,2,1,08,03,,,29,06,82,357,35,08,56,136,34,09,,,22*61
$BDGSV,2,2,08,12,,,27,13,85,129,36,19,,,35,20,,,27*5F
$GNRMC,072221.000,A,3032.2219,N,10412.5214,E,2.07,210.79,290918,,,A*79
$GNVTG,210.79,T,,M,2.07,N,3.83,K,A*23
$GNZDA,072221.000,29,09,2018,00,00*45
$GPTXT,01,01,01,ANTENNA OK*35
?b??bbbbbbbbbb?r?b?r?b?r?R?"5
$GPGSV,3,1,11,02,,,20,05,32,058,34,13,58,051,32,15,77,224,32*4E
$GPGSV,3,2,11,20,15,281,14,21,32,317,28,24,18,163,,29,51,234,32*7D
$GPGSV,3,3,11,30,05,044,,34,,,24,36,,,22*4B
$BDGSV,2,1,08,03,,,29,06,82,357,35,08,56,136,34,09,,,22*61
$BDGSV,2,2,08,12,,,27,13,85,129,36,19,,,34,20,,,27*5E
$GNRMC,072222.000,A,3032.2213,N,10412.5206,E,2.09,205.69,290918,,,A*78
$GNVTG,205.69,T,,M,2.09,N,3.87,K,A*2C
$GNZDA,072222.000,29,09,2018,00,00*46
$GPTXT,01,01,01,ANTENNA OK*35
?b??bbbbbbbbbb?r?b?r?b?r?R?"5
$GPGSV,3,1,11,02,,,20,05,32,058,34,13,58,051,33,15,77,224,32*4F
$GPGSV,3,2,11,20,15,281,14,21,32,317,28,24,18,163,,29,51,234,32*7D
$GPGSV,3,3,11,30,05,044,,34,,,28,36,,,24*41
$BDGSV,2,1,08,03,,,29,06,82,357,35,08,56,136,34,09,,,22*61
$BDGSV,2,2,08,12,,,26,13,85,129,36,19,,,30,20,,,25*59
$GNRMC,072223.000,A,3032.2206,N,10412.5197,E,2.17,202.95,290918,,,A*7D
$GNVTG,202.95,T,,M,2.17,N,4.01,K,A*2E
$GNZDA,072223.000,29,09,2018,00,00*47
$GPTXT,01,01,01,ANTENNA OK*35
),3,06,08,13,,,,,,,,,,4.6,3.3,3.3*2D
$GPGSV,3,1,11,02,,,21,05,32,058,34,13,58,051,33,15,77,224,32*4E
$GPGSV,3,2,11,20,15,281,14,21,32,317,28,24,18,163,,29,51,234,32*7D
$GPGSV,3,3,11,30,05,044,,34,,,28,36,,,24*41
$BDGSV,2,1,08,03,,,29,06,82,357,35,08,56,136,34,09,,,22*61
$BDGSV,2,2,08,12,,,26,13,85,129,36,19,,,30,20,,,25*59
$GNRMC,072224.000,A,3032.2200,N,10412.5188,E,2.38,203.06,290918,,,A*74
$GNVTG,203.06,T,,M,2.38,N,4.40,K,A*2D
$GNZDA,072224.000,29,09,2018,00,00*40
$GPTXT,01,01,01,ANTENNA OK*35
(?M,A,3,06,08,13,,,,,,,,,,4.6,3.3,3.3*2D
$GPGSV,3,1,11,02,,,21,05,32,058,32,13,58,051,33,15,77,224,30*4A
$GPGSV,3,2,11,20,15,281,08,21,32,317,28,24,18,163,,29,51,234,32*70
$GPGSV,3,3,11,30,05,044,,34,,,28,36,,,24*41
$BDGSV,2,1,08,03,,,29,06,82,357,35,08,56,136,34,09,,,22*61
$BDGSV,2,2,08,12,,,26,13,85,129,36,19,,,30,20,,,25*59
$GNRMC,072225.000,A,3032.2193,N,10412.5177,E,2.42,202.55,290918,,,A*76
$GNVTG,202.55,T,,M,2.42,N,4.48,K,A*2F
$GNZDA,072225.000,29,09,2018,00,00*41
$GPTXT,01,01,01,ANTENNA OK*35
08,13,,,,,,,,,,4.6,3.3,3.3*2D
$GPGSV,3,1,11,02,,,21,05,32,058,34,13,58,051,33,15,77,224,30*4C
$GPGSV,3,2,11,20,15,281,08,21,32,317,27,24,18,163,,29,51,234,32*7F
$GPGSV,3,3,11,30,05,044,,34,,,28,36,,,24*41
$BDGSV,2,1,08,03,,,29,06,82,357,35,08,56,136,34,09,,,22*61
$BDGSV,2,2,08,12,,,26,13,85,129,36,19,,,30,20,,,25*59
$GNRMC,072226.000,A,3032.2183,N,10412.5163,E,2.75,204.10,290918,,,A*72
$GNVTG,204.10,T,,M,2.75,N,5.08,K,A*29
$GNZDA,072226.000,29,09,2018,00,00*42
$GPTXT,01,01,01,ANTENNA OK*35
,08,13,,,,,,,,,,4.6,3.3,3.3*2D
$GPGSV,3,1,11,02,,,21,05,32,058,34,13,58,051,33,15,77,224,30*4C
$GPGSV,3,2,11,20,15,281,17,21,32,317,27,24,18,163,,29,51,234,32*71
$GPGSV,3,3,11,30,05,044,,34,,,26,36,,,24*4F
$BDGSV,2,1,08,03,,,29,06,82,357,35,08,56,136,34,09,,,22*61
$BDGSV,2,2,08,12,,,24,13,85,129,37,19,,,30,20,,,25*5A
$GNRMC,072227.000,A,3032.2172,N,10412.5146,E,3.46,208.81,290918,,,A*7F
$GNVTG,208.81,T,,M,3.46,N,6.41,K,A*22
$GNZDA,072227.000,29,09,2018,00,00*43
$GPTXT,01,01,01,ANTENNA OK*35
8,13,,,,,,,,,,4.6,3.3,3.3*2D
$GPGSV,3,1,11,02,,,21,05,32,058,34,13,58,051,33,15,77,224,30*4C
$GPGSV,3,2,11,20,15,281,17,21,32,317,15,24,18,163,,29,51,234,33*71
$GPGSV,3,3,11,30,05,044,,34,,,26,36,,,24*4F
$BDGSV,2,1,08,03,,,29,06,82,357,35,08,56,136,34,09,,,22*61
$BDGSV,2,2,08,12,,,24,13,85,129,37,19,,,29,20,,,23*54
$GNRMC,072228.000,A,3032.2160,N,10412.5127,E,4.27,215.05,290918,,,A*74
$GNVTG,215.05,T,,M,4.27,N,7.92,K,A*2D
$GNZDA,072228.000,29,09,2018,00,00*4C
$GPTXT,01,01,01,ANTENNA OK*35
	?b??b??bbbbbbbbbb?r?b?r?b?r?R?"5
$GPGSV,3,1,11,02,,,21,05,32,058,34,13,58,051,33,15,77,224,30*4C
$GPGSV,3,2,11,20,15,281,17,21,32,317,15,24,18,163,,29,51,234,33*71
$GPGSV,3,3,11,30,05,044,,34,,,20,36,,,24*49
$BDGSV,2,1,08,03,,,29,06,82,357,35,08,56,136,34,09,,,22*61
$BDGSV,2,2,08,12,,,07,13,85,130,38,19,,,29,20,,,23*52
$GNRMC,072229.000,A,3032.2147,N,10412.5107,E,5.22,221.77,290918,,,A*74
$GNVTG,221.77,T,,M,5.22,N,9.67,K,A*2F
$GNZDA,072229.000,29,09,2018,00,00*4D
$GPTXT,01,01,01,ANTENNA OK*35
,3,06,08,13,,,,,,,,,,4.6,3.3,3.3*2D
$GPGSV,3,1,11,02,,,21,05,32,058,33,13,58,051,33,15,77,224,30*4B
$GPGSV,3,2,11,20,15,281,17,21,32,317,15,24,18,163,,29,51,234,33*71
$GPGSV,3,3,11,30,05,044,,34,,,20,36,,,23*4E
$BDGSV,2,1,08,03,,,29,06,82,357,35,08,56,136,35,09,,,22*60
$BDGSV,2,2,08,12,,,07,13,85,130,38,19,,,26,20,,,23*5D
$GNRMC,072230.000,A,3032.2133,N,10412.5086,E,5.45,225.86,290918,,,A*7C
$GNVTG,225.86,T,,M,5.45,N,10.08,K,A*15
$GNZDA,072230.000,29,09,2018,00,00*45
$GPTXT,01,01,01,ANTENNA OK*35

$BDGSA,A,3,06,08,13,,,,,,,,,,3.1,1.5,2.7*2C
$GPGSV,3,1,11,02,,,23,05,32,058,33,13,58,051,33,15,77,224,24*4C
$GPGSV,3,2,11,20,15,281,17,21,32,317,15,24,18,163,,29,51,234,33*71
$GPGSV,3,3,11,30,05,044,,34,,,20,36,,,23*4E
$BDGSV,2,1,08,03,,,29,06,82,357,35,08,56,136,35,09,,,22*60
$BDGSV,2,2,08,12,,,07,13,85,130,36,19,,,26,20,,,23*53
$GNRMC,072231.000,A,3032.2120,N,10412.5066,E,6.86,229.95,290918,,,A*73
$GNVTG,229.95,T,,M,6.86,N,12.71,K,A*1B
$GNZDA,072231.000,29,09,2018,00,00*44
$GPTXT,01,01,01,ANTENNA OK*35
$BDGSA,A,3,06,08,13,,,,,,,,,,3.1,1.5,2.7*2C
$GPGSV,3,1,11,02,,,23,05,32,058,34,13,58,051,33,15,77,224,28*47
$GPGSV,3,2,11,20,15,281,17,21,32,317,15,24,18,163,,29,51,234,33*71
$GPGSV,3,3,11,30,05,044,,34,,,20,36,,,23*4E
$BDGSV,2,1,08,03,,,27,06,82,357,35,08,56,136,33,09,,,22*68
$BDGSV,2,2,08,12,,,07,13,85,130,36,19,,,26,20,,,20*50
$GNRMC,072232.000,A,3032.2107,N,10412.5046,E,7.77,232.87,290918,,,A*71
$GNVTG,232.87,T,,M,7.77,N,14.38,K,A*16
$GNZDA,072232.000,29,09,2018,00,00*47
$GPTXT,01,01,01,ANTENNA OK*35
')?bbbbbbbbbb?r?b?r?b?r?R?5
$GPGSV,3,1,11,02,,,23,05,32,058,34,13,58,051,33,15,77,224,28*47
$GPGSV,3,2,11,20,15,281,12,21,32,317,15,24,18,163,,29,51,234,33*74
$GPGSV,3,3,11,30,05,044,,34,,,20,36,,,23*4E
$BDGSV,2,1,08,03,,,27,06,82,357,35,08,56,136,33,09,,,21*6B
$BDGSV,2,2,08,12,,,07,13,85,130,36,19,,,24,20,,,20*52
$GNRMC,072233.000,A,3032.2095,N,10412.5027,E,7.86,235.13,290918,,,A*79
$GNVTG,235.13,T,,M,7.86,N,14.56,K,A*1A
$GNZDA,072233.000,29,09,2018,00,00*46
$GPTXT,01,01,01,ANTENNA OK*35
R$BDGSA,A,3,06,08,13,,,,,,,,,,3.1,1.5,2.7*2C
$GPGSV,3,1,11,02,,,23,05,32,058,34,13,58,051,33,15,77,224,28*47
$GPGSV,3,2,11,20,15,281,12,21,32,317,15,24,18,163,,29,51,234,34*73
$GPGSV,3,3,11,30,05,044,,34,,,22,36,,,23*4C
$BDGSV,2,1,08,03,,,27,06,82,357,36,08,56,136,35,09,,,21*6E
$BDGSV,2,2,08,12,,,07,13,85,130,36,19,,,24,20,,,20*52
$GNRMC,072234.000,A,3032.2083,N,10412.5011,E,7.49,235.26,290918,,,A*79
$GNVTG,235.26,T,,M,7.49,N,13.86,K,A*15
$GNZDA,072234.000,29,09,2018,00,00*41
$GPTXT,01,01,01,ANTENNA OK*35
!M,A,3,06,08,13,,,,,,,,,,3.1,1.5,2.7*2C
$GPGSV,3,1,11,02,,,23,05,32,058,34,13,58,051,34,15,77,224,29*41
$GPGSV,3,2,11,20,15,281,12,21,32,317,17,24,18,163,,29,51,234,34*71
$GPGSV,3,3,11,30,05,044,,34,,,22,36,,,23*4C
$BDGSV,2,1,08,03,,,27,06,82,357,36,08,56,136,35,09,,,21*6E
$BDGSV,2,2,08,12,,,07,13,85,130,36,19,,,24,20,,,24*56
$GNRMC,072235.000,A,3032.2069,N,10412.4995,E,7.26,234.13,290918,,,A*76
$GNVTG,234.13,T,,M,7.26,N,13.45,K,A*14
$GNZDA,072235.000,29,09,2018,00,00*40
$GPTXT,01,01,01,ANTENNA OK*35
M,A,3,06,08,13,,,,,,,,,,3.1,1.5,2.7*2C
$GPGSV,3,1,11,02,,,23,05,32,058,34,13,58,051,34,15,77,224,33*4A
$GPGSV,3,2,11,20,15,281,12,21,32,317,17,24,18,163,,29,51,234,34*71
$GPGSV,3,3,11,30,05,044,,34,,,22,36,,,23*4C
$BDGSV,2,1,08,03,,,27,06,82,357,37,08,56,136,34,09,,,21*6E
$BDGSV,2,2,08,12,,,07,13,85,130,37,19,,,24,20,,,29*5A
$GNRMC,072236.000,A,3032.2058,N,10412.4981,E,7.24,233.02,290918,,,A*77
$GNVTG,233.02,T,,M,7.24,N,13.41,K,A*15
$GNZDA,072236.000,29,09,2018,00,00*43
$GPTXT,01,01,01,ANTENNA OK*35

,3,06,08,13,,,,,,,,,,3.1,1.5,2.7*2C
$GPGSV,3,1,11,02,,,23,05,32,058,32,13,58,051,33,15,77,224,30*48
$GPGSV,3,2,11,20,15,281,12,21,32,317,17,24,18,163,,29,51,234,34*71
$GPGSV,3,3,11,30,05,044,,34,,,22,36,,,23*4C
$BDGSV,2,1,08,03,,,27,06,82,357,37,08,56,136,34,09,,,21*6E
$BDGSV,2,2,08,12,,,07,13,85,130,37,19,,,24,20,,,33*51
$GNRMC,072237.000,A,3032.2045,N,10412.4967,E,7.34,231.88,290918,,,A*73
$GNVTG,231.88,T,,M,7.34,N,13.59,K,A*1D
$GNZDA,072237.000,29,09,2018,00,00*42
$GPTXT,01,01,01,ANTENNA OK*35
bbbbbbbbbb?r?b?r?b?r?R?5
$GPGSV,3,1,11,02,,,23,05,32,058,32,13,58,051,33,15,77,224,30*48
$GPGSV,3,2,11,20,15,281,06,21,32,317,17,24,18,163,,29,51,234,33*73
$GPGSV,3,3,11,30,05,044,,34,,,24,36,,,21*48
$BDGSV,2,1,08,03,,,30,06,82,357,37,08,56,136,32,09,,,19*65
$BDGSV,2,2,08,12,,,07,13,85,130,37,19,,,24,20,,,29*5A
$GNRMC,072238.000,A,3032.2034,N,10412.4953,E,7.36,231.31,290918,,,A*7D
$GNVTG,231.31,T,,M,7.36,N,13.62,K,A*15
$GNZDA,072238.000,29,09,2018,00,00*4D
$GPTXT,01,01,01,ANTENNA OK*35
??b??b??bbbbbbbbbb?r?b?r?b?r?R?5
$GPGSV,3,1,11,02,,,23,05,32,058,32,13,58,051,33,15,77,224,30*48
$GPGSV,3,2,11,20,15,281,06,21,32,318,17,24,18,163,,29,51,234,33*7C
$GPGSV,3,3,11,30,05,044,,34,,,24,36,,,21*48
$BDGSV,2,1,07,03,,,30,06,82,357,37,08,56,136,33,12,,,07*6E
$BDGSV,2,2,07,13,85,130,37,19,,,24,20,,,29*51
$GNRMC,072239.000,A,3032.2023,N,10412.4939,E,7.72,230.33,290918,,,A*75
$GNVTG,230.33,T,,M,7.72,N,14.29,K,A*1E
$GNZDA,072239.000,29,09,2018,00,00*4C
$GPTXT,01,01,01,ANTENNA OK*35
???ir?b?r?b?r?R?5
$GPGSV,3,1,11,02,,,23,05,32,058,32,13,58,051,33,15,77,224,30*48
$GPGSV,3,2,11,20,15,281,06,21,32,318,17,24,18,163,,29,51,234,33*7C
$GPGSV,3,3,11,30,05,044,,34,,,24,36,,,21*48
$BDGSV,2,1,07,03,,,30,06,82,357,37,08,56,136,33,12,,,07*6E
$BDGSV,2,2,07,13,85,130,37,19,,,24,20,,,27*5F
$GNRMC,072240.000,A,3032.2007,N,10412.4918,E,7.95,229.68,290918,,,A*71
$GNVTG,229.68,T,,M,7.95,N,14.72,K,A*1F
$GNZDA,072240.000,29,09,2018,00,00*42
$GPTXT,01,01,01,ANTENNA OK*35
M,A,3,06,08,13,,,,,,,,,,3.1,1.5,2.7*2C
$GPGSV,3,1,11,02,,,23,05,32,058,31,13,58,051,33,15,77,224,29*43
$GPGSV,3,2,11,20,15,281,06,21,32,318,17,24,18,163,,29,51,234,33*7C
$GPGSV,3,3,11,30,05,044,,34,,,21,36,,,21*4D
$BDGSV,2,1,07,03,,,30,06,82,357,36,08,55,136,35,12,,,07*6A
$BDGSV,2,2,07,13,85,130,37,19,,,24,20,,,27*5F
$GNRMC,072241.000,A,3032.1993,N,10412.4899,E,7.90,229.17,290918,,,A*72
$GNVTG,229.17,T,,M,7.90,N,14.63,K,A*12
$GNZDA,072241.000,29,09,2018,00,00*43
$GPTXT,01,01,01,ANTENNA OK*35
??????ir?b?r?b?r?R?5
$GPGSV,3,1,11,02,,,23,05,32,058,31,13,58,051,33,15,77,224,29*43
$GPGSV,3,2,11,20,16,281,06,21,32,318,17,24,18,163,,29,51,234,32*7E
$GPGSV,3,3,11,30,05,044,,34,,,21,36,,,21*4D
$BDGSV,2,1,07,03,,,30,06,82,357,36,08,55,136,35,12,,,07*6A
$BDGSV,2,2,07,13,85,130,37,19,,,24,20,,,27*5F
$GNRMC,072242.000,A,3032.1979,N,10412.4882,E,8.10,229.03,290918,,,A*7D
$GNVTG,229.03,T,,M,8.10,N,15.00,K,A*14
$GNZDA,072242.000,29,09,2018,00,00*40
$GPTXT,01,01,01,ANTENNA OK*35
?M,A,3,06,08,13,,,,,,,,,,3.1,1.5,2.7*2C
$GPGSV,3,1,11,02,,,23,05,32,058,31,13,58,051,33,15,77,224,29*43
$GPGSV,3,2,11,20,16,281,12,21,32,318,17,24,18,163,,29,51,234,33*7A
$GPGSV,3,3,11,30,05,044,,34,,,21,36,,,21*4D
$BDGSV,2,1,07,03,,,30,06,82,357,36,08,55,136,35,12,,,07*6A
$BDGSV,2,2,07,13,85,130,37,19,,,24,20,,,24*5C
$GNRMC,072243.000,A,3032.1968,N,10412.4866,E,8.00,229.16,290918,,,A*73
$GNVTG,229.16,T,,M,8.00,N,14.82,K,A*1A
$GNZDA,072243.000,29,09,2018,00,00*41
$GPTXT,01,01,01,ANTENNA OK*35
L	?b??bbbbbbbbbb?r?b?r?b?r?R?5
$GPGSV,3,1,11,02,,,23,05,32,058,31,13,58,051,33,15,77,224,29*43
$GPGSV,3,2,11,20,16,281,12,21,32,318,14,24,18,163,,29,51,234,33*79
$GPGSV,3,3,11,30,05,044,,34,,,21,36,,,21*4D
$BDGSV,2,1,07,03,,,30,06,82,357,36,08,55,136,36,12,,,07*69
$BDGSV,2,2,07,13,85,130,38,19,,,24,20,,,24*53
$GNRMC,072244.000,A,3032.1955,N,10412.4848,E,8.13,229.51,290918,,,A*77
$GNVTG,229.51,T,,M,8.13,N,15.05,K,A*15
$GNZDA,072244.000,29,09,2018,00,00*46
$GPTXT,01,01,01,ANTENNA OK*35
?
5
$BDGSA,A,3,06,08,13,,,,,,,,,,3.1,1.5,2.7*2C
$GPGSV,3,1,11,02,,,23,05,32,058,31,13,58,051,33,15,77,224,30*4B
$GPGSV,3,2,11,20,16,281,12,21,32,318,14,24,18,163,,29,51,234,33*79
$GPGSV,3,3,11,30,05,044,,34,,,21,36,,,23*4F
$BDGSV,2,1,07,03,,,30,06,82,357,36,08,55,136,34,12,,,07*6B
$BDGSV,2,2,07,13,85,130,38,19,,,24,20,,,24*53
$GNRMC,072245.000,A,3032.1942,N,10412.4830,E,8.08,229.59,290918,,,A*7D
$GNVTG,229.59,T,,M,8.08,N,14.96,K,A*1C
$GNZDA,072245.000,29,09,2018,00,00*47
$GPTXT,01,01,01,ANTENNA OK*35
,A,3,06,08,13,,,,,,,,,,3.1,1.5,2.7*2C
$GPGSV,3,1,11,02,,,23,05,32,058,31,13,58,051,33,15,77,224,30*4B
$GPGSV,3,2,11,20,16,281,12,21,32,318,14,24,19,163,,29,51,234,33*78
$GPGSV,3,3,11,30,05,044,,34,,,21,36,,,23*4F
$BDGSV,2,1,07,03,,,30,06,82,357,36,08,55,136,34,12,,,07*6B
$BDGSV,2,2,07,13,85,130,38,19,,,24,20,,,24*53
$GNRMC,072246.000,A,3032.1929,N,10412.4812,E,8.24,229.57,290918,,,A*73
$GNVTG,229.57,T,,M,8.24,N,15.26,K,A*16
$GNZDA,072246.000,29,09,2018,00,00*44
$GPTXT,01,01,01,ANTENNA OK*35
A
$BDGSA,A,3,06,08,13,,,,,,,,,,3.1,1.5,2.7*2C
$GPGSV,3,1,11,02,,,23,05,32,058,32,13,58,051,33,15,77,224,30*48
$GPGSV,3,2,11,20,16,281,12,21,32,318,14,24,19,163,,29,51,234,33*78
$GPGSV,3,3,11,30,05,044,,34,,,22,36,,,23*4C
$BDGSV,2,1,07,03,,,30,06,82,357,35,08,55,136,34,12,,,07*68
$BDGSV,2,2,07,13,85,130,37,19,,,36,20,,,19*51
$GNRMC,072247.000,A,3032.1916,N,10412.4794,E,8.28,229.57,290918,,,A*73
$GNVTG,229.57,T,,M,8.28,N,15.33,K,A*1E
$GNZDA,072247.000,29,09,2018,00,00*45
$GPTXT,01,01,01,ANTENNA OK*35
P),3,06,08,13,,,,,,,,,,3.1,1.5,2.7*2C
$GPGSV,3,1,11,02,,,23,05,32,058,32,13,58,051,33,15,78,224,30*47
$GPGSV,3,2,11,20,16,281,15,21,32,318,14,24,19,163,,29,51,234,33*7F
$GPGSV,3,3,11,30,05,044,,34,,,22,36,,,23*4C
$BDGSV,2,1,07,03,,,30,06,82,357,35,08,55,136,34,12,,,07*68
$BDGSV,2,2,07,13,85,130,37,19,,,36,20,,,19*51
$GNRMC,072248.000,A,3032.1903,N,10412.4776,E,8.34,229.77,290918,,,A*7B
$GNVTG,229.77,T,,M,8.34,N,15.45,K,A*10
$GNZDA,072248.000,29,09,2018,00,00*4A
$GPTXT,01,01,01,ANTENNA OK*35
3,06,08,13,,,,,,,,,,3.1,1.5,2.7*2C
$GPGSV,3,1,11,02,,,23,05,32,058,32,13,58,051,33,15,78,224,30*47
$GPGSV,3,2,11,20,16,281,15,21,32,318,19,24,19,163,,29,51,234,33*72
$GPGSV,3,3,11,30,05,044,,34,,,22,36,,,23*4C
$BDGSV,2,1,07,03,,,30,06,82,357,35,08,55,136,35,12,,,07*69
$BDGSV,2,2,07,13,85,130,37,19,,,37,20,,,19*50
$GNRMC,072249.000,A,3032.1889,N,10412.4758,E,8.43,229.74,290918,,,A*76
$GNVTG,229.74,T,,M,8.43,N,15.62,K,A*16
$GNZDA,072249.000,29,09,2018,00,00*4B
$GPTXT,01,01,01,ANTENNA OK*35
$BDGSA,A,3,06,08,13,,,,,,,,,,3.1,1.5,2.7*2C
$GPGSV,3,1,11,02,,,23,05,32,058,32,13,58,051,33,15,78,224,29*4F
$GPGSV,3,2,11,20,16,281,15,21,32,318,26,24,19,163,,29,51,234,33*7E
$GPGSV,3,3,11,30,05,044,,34,,,22,36,,,23*4C
$BDGSV,2,1,07,03,,,30,06,82,357,36,08,55,136,35,12,,,23*6C
$BDGSV,2,2,07,13,85,130,37,19,,,37,20,,,19*50
$GNRMC,072250.000,A,3032.1875,N,10412.4739,E,8.48,229.79,290918,,,A*7C
$GNVTG,229.79,T,,M,8.48,N,15.71,K,A*12
$GNZDA,072250.000,29,09,2018,00,00*43
$GPTXT,01,01,01,ANTENNA OK*35
,A,3,06,08,13,,,,,,,,,,3.1,1.5,2.7*2C
$GPGSV,3,1,11,02,,,22,05,32,058,31,13,58,051,33,15,78,224,29*4D
$GPGSV,3,2,11,20,16,281,15,21,32,318,26,24,19,163,,29,51,234,32*7F
$GPGSV,3,3,11,30,05,044,,34,,,22,36,,,23*4C
$BDGSV,2,1,08,02,,,30,03,,,30,06,82,357,36,08,55,136,36*63
$BDGSV,2,2,08,12,,,23,13,85,130,37,19,,,36,20,,,21*57
$GNRMC,072251.000,A,3032.1861,N,10412.4720,E,8.45,229.56,290918,,,A*70
$GNVTG,229.56,T,,M,8.45,N,15.66,K,A*14
$GNZDA,072251.000,29,09,2018,00,00*42
$GPTXT,01,01,01,ANTENNA OK*35
06,08,13,,,,,,,,,,3.1,1.5,2.7*2C
$GPGSV,3,1,11,02,,,22,05,32,058,31,13,58,051,33,15,78,224,27*43
$GPGSV,3,2,11,20,16,281,15,21,32,318,26,24,19,163,,29,51,234,32*7F
$GPGSV,3,3,11,30,05,044,,34,,,22,36,,,23*4C
$BDGSV,2,1,08,02,,,30,03,,,30,06,82,357,36,08,55,136,36*63
$BDGSV,2,2,08,12,,,26,13,85,130,37,19,,,27,20,,,24*57
$GNRMC,072252.000,A,3032.1845,N,10412.4701,E,8.34,229.12,290918,,,A*70
$GNVTG,229.12,T,,M,8.34,N,15.45,K,A*13
$GNZDA,072252.000,29,09,2018,00,00*41
$GPTXT,01,01,01,ANTENNA OK*35
08,13,,,,,,,,,,3.1,1.5,2.7*2C
$GPGSV,3,1,11,02,,,22,05,32,058,31,13,58,051,33,15,78,224,27*43
$GPGSV,3,2,11,20,16,281,18,21,32,318,26,24,19,163,,29,51,234,33*73
$GPGSV,3,3,11,30,05,044,,34,,,19,36,,,21*46
$BDGSV,2,1,08,02,,,30,03,,,30,06,82,357,36,08,55,136,34*61
$BDGSV,2,2,08,12,,,26,13,85,131,37,19,,,27,20,,,24*56
$GNRMC,072253.000,A,3032.1830,N,10412.4681,E,8.29,228.71,290918,,,A*72
$GNVTG,228.71,T,,M,8.29,N,15.35,K,A*1C
$GNZDA,072253.000,29,09,2018,00,00*40
$GPTXT,01,01,01,ANTENNA OK*35
A,A,3,06,08,13,,,,,,,,,,3.1,1.5,2.7*2C
$GPGSV,3,1,11,02,,,16,05,32,058,31,13,58,051,33,15,78,224,27*44
$GPGSV,3,2,11,20,16,281,18,21,32,318,24,24,19,163,,29,51,234,33*71
$GPGSV,3,3,11,30,05,044,,34,,,19,36,,,21*46
$BDGSV,2,1,08,02,,,30,03,,,30,06,82,357,36,08,55,136,31*64
$BDGSV,2,2,08,12,,,26,13,85,131,37,19,,,27,20,,,27*55
$GNRMC,072254.000,A,3032.1815,N,10412.4661,E,8.11,228.56,290918,,,A*72
$GNVTG,228.56,T,,M,8.11,N,15.02,K,A*16
$GNZDA,072254.000,29,09,2018,00,00*47
$GPTXT,01,01,01,ANTENNA OK*35
3,,,,,,,,,,3.1,1.5,2.7*2C
$GPGSV,3,1,11,02,,,16,05,32,059,30,13,58,051,33,15,78,224,27*44
$GPGSV,3,2,11,20,16,281,18,21,32,318,24,24,19,163,,29,51,234,33*71
$GPGSV,3,3,11,30,05,044,,34,,,19,36,,,21*46
$BDGSV,2,1,08,02,,,30,03,,,30,06,82,357,36,08,55,136,31*64
$BDGSV,2,2,08,12,,,26,13,85,131,38,19,,,25,20,,,27*58
$GNRMC,072255.000,A,3032.1800,N,10412.4641,E,8.01,228.59,290918,,,A*7B
$GNVTG,228.59,T,,M,8.01,N,14.84,K,A*17
$GNZDA,072255.000,29,09,2018,00,00*46
$GPTXT,01,01,01,ANTENNA OK*35
5
$BDGSA,A,3,06,08,13,,,,,,,,,,3.1,1.5,2.7*2C
$GPGSV,3,1,11,02,,,21,05,32,059,30,13,58,051,33,15,78,224,27*40
$GPGSV,3,2,11,20,16,281,22,21,32,318,24,24,19,163,,29,51,234,33*78
$GPGSV,3,3,11,30,05,044,,34,,,19,36,,,21*46
$BDGSV,2,1,08,02,,,30,03,,,30,06,82,357,36,08,55,136,31*64
$BDGSV,2,2,08,12,,,19,13,85,131,38,19,,,25,20,,,27*54
$GNRMC,072256.000,A,3032.1787,N,10412.4622,E,7.81,229.01,290918,,,A*76
$GNVTG,229.01,T,,M,7.81,N,14.47,K,A*13
$GNZDA,072256.000,29,09,2018,00,00*45
$GPTXT,01,01,01,ANTENNA OK*35
?b??bbbbbbbbbb?r?b?r?b?r?R?5
$GPGSV,3,1,11,02,,,21,05,32,059,30,13,58,051,33,15,78,224,27*40
$GPGSV,3,2,11,20,16,281,28,21,32,318,24,24,19,163,,29,51,234,33*72
$GPGSV,3,3,11,30,05,044,,34,,,19,36,,,21*46
$BDGSV,2,1,08,02,,,30,03,,,30,06,82,357,36,08,55,136,31*64
$BDGSV,2,2,08,12,,,19,13,85,131,37,19,,,25,20,,,25*59
$GNRMC,072257.000,A,3032.1773,N,10412.4603,E,7.77,229.65,290918,,,A*74
$GNVTG,229.65,T,,M,7.77,N,14.39,K,A*11
$GNZDA,072257.000,29,09,2018,00,00*44
$GPTXT,01,01,01,ANTENNA OK*35
A,3,06,08,13,,,,,,,,,,3.1,1.5,2.7*2C
$GPGSV,3,1,11,02,,,21,05,32,059,31,13,58,051,33,15,78,224,27*41
$GPGSV,3,2,11,20,16,281,28,21,32,318,16,24,19,163,,29,51,234,33*73
$GPGSV,3,3,11,30,05,044,,34,,,21,36,,,21*4D
$BDGSV,2,1,08,02,,,30,03,,,30,06,82,357,36,08,55,136,32*67
$BDGSV,2,2,08,12,,,19,13,85,131,37,19,,,25,20,,,25*59
$GNRMC,072258.000,A,3032.1760,N,10412.4584,E,7.52,230.23,290918,,,A*78
$GNVTG,230.23,T,,M,7.52,N,13.93,K,A*1B
$GNZDA,072258.000,29,09,2018,00,00*4B
$GPTXT,01,01,01,ANTENNA OK*35
6,08,13,,,,,,,,,,3.1,1.5,2.7*2C
$GPGSV,3,1,11,02,,,21,05,32,059,34,13,58,051,33,15,78,224,27*44
$GPGSV,3,2,11,20,16,281,24,21,32,318,16,24,19,163,,29,51,234,33*7F
$GPGSV,3,3,11,30,05,044,,34,,,21,36,,,21*4D
$BDGSV,2,1,08,02,,,30,03,,,30,06,82,357,36,08,55,136,35*60
$BDGSV,2,2,08,12,,,19,13,85,131,37,19,,,25,20,,,19*56
$GNRMC,072259.000,A,3032.1746,N,10412.4566,E,7.66,230.75,290918,,,A*75
$GNVTG,230.75,T,,M,7.66,N,14.18,K,A*1B
