

$GPTXT,01,01,02,MA=CASIC*27
$GPTXT,01,01,02,HW=ATGM332D,0080402545151*15
$GPTXT,01,01,02,IC=AT6558-5N-31-0C500000,J8B191C-D4-002762*54
$GPTXT,01,01,02,SW=URANUS4,V4.6.1.0*19
$GPTXT,01,01,02,TB=2017-11-23,14:56:57*4B
$GPTXT,01,01,02,MO=GB*77
$GPTXT,01,01,02,BS=SOC_BootLoader,V6.2.0.2*34
$GPTXT,01,01,02,CI=01B94154*04
$GNGGA,,,,,,0,00,25.5,,,,,,*64
$GNGLL,,,,,,V,M*79
$GPGSA,A,1,,,,,,,,,,,,,25.5,25.5,25.5*02
$BDGSA,A,1,,,,,,,,,,,,,25.5,25.5,25.5*13
$GPGSV,1,1,00*79
$BDGSV,1,1,00*68
$GNRMC,,V,,,,,,,,,,M*4E
$GNVTG,,,,,,,,,M*2D
$GNZDA,,,,,,*56
$GPTXT,01,01,01,ANTENNA OK*35
$GNGGA,,,,,,0,00,25.5,,,,,,*64
$GNGLL,,,,,,V,M*79
$GPGSA,A,1,,,,,,,,,,,,,25.5,25.5,25.5*02
$BDGSA,A,1,,,,,,,,,,,,,25.5,25.5,25.5*13
$GPGSV,1,1,01,15,,,40*78
$BDGSV,1,1,01,19,,,36*64
$GNRMC,,V,,,,,,,,,,M*4E
$GNVTG,,,,,,,,,M*2D
$GNZDA,,,,,,*56
$GPTXT,01,01,01,ANTENNA OK*35
$GNGGA,,,,,,0,00,25.5,,,,,,*64
$GNGLL,,,,,,V,M*79
$GPGSA,A,1,,,,,,,,,,,,,25.5,25.5,25.5*02
$BDGSA,A,1,,,,,,,,,,,,,25.5,25.5,25.5*13
$GPGSV,1,1,02,05,,,35,15,,,40*78
$BDGSV,1,1,03,06,,,38,19,,,36,20,,,39*63
$GNRMC,,V,,,,,,,,,,M*4E
$GNVTG,,,,,,,,,M*2D
$GNZDA,,,,,,*56
$GPTXT,01,01,01,ANTENNA OK*35
$GNGGA,,,,,,0,00,25.5,,,,,,*64
$GNGLL,,,,,,V,M*79
$GPGSA,A,1,,,,,,,,,,,,,25.5,25.5,25.5*02
$BDGSA,A,1,,,,,,,,,,,,,25.5,25.5,25.5*13
$GPGSV,1,1,03,05,,,35,15,,,40,21,,,36*7F
$BDGSV,1,1,03,06,,,38,19,,,36,20,,,39*63
$GNRMC,,V,,,,,,,,,,M*4E
$GNVTG,,,,,,,,,M*2D
$GNZDA,,,,,,*56
$GPTXT,01,01,01,ANTENNA OK*35
$GNGGA,,,,,,0,00,25.5,,,,,,*64
$GNGLL,,,,,,V,M*79
$GPGSA,A,1,,,,,,,,,,,,,25.5,25.5,25.5*02
$BDGSA,A,1,,,,,,,,,,,,,25.5,25.5,25.5*13
$GPGSV,1,1,03,05,,,33,15,,,39,21,,,36*77
$BDGSV,1,1,03,06,,,38,19,,,36,20,,,39*63
$GNRMC,,V,,,,,,,,,,M*4E
$GNVTG,,,,,,,,,M*2D
$GNZDA,,,,,,*56
$GPTXT,01,01,01,ANTENNA OK*35
$GNGGA,,,,,,0,00,25.5,,,,,,*64
$GNGLL,,,,,,V,M*79
$GPGSA,A,1,,,,,,,,,,,,,25.5,25.5,25.5*02
$BDGSA,A,1,,,,,,,,,,,,,25.5,25.5,25.5*13
$GPGSV,1,1,03,05,,,30,15,,,36,21,,,34*79
$BDGSV,1,1,04,06,,,38,13,,,37,19,,,36,20,,,39*62
$GNRMC,,V,,,,,,,,,,M*4E
$GNVTG,,,,,,,,,M*2D
$GNZDA,,,,,,*56
$GPTXT,01,01,01,ANTENNA OK*35
$GNGGA,,,,,,0,00,25.5,,,,,,*64
$GNGLL,,,,,,V,M*79
$GPGSA,A,1,,,,,,,,,,,,,25.5,25.5,25.5*02
$BDGSA,A,1,,,,,,,,,,,,,25.5,25.5,25.5*13
$GPGSV,1,1,03,05,,,30,15,,,36,21,,,31*7C
$BDGSV,1,1,04,06,,,38,13,,,38,19,,,36,20,,,37*63
$GNRMC,,V,,,,,,,,,,M*4E
$GNVTG,,,,,,,,,M*2D
$GNZDA,,,,,,*56
$GPTXT,01,01,01,ANTENNA OK*35
$GNGGA,072034.146,,,,,0,00,25.5,,,,,,*7B
$GNGLL,,,,,072034.146,V,M*66
$GPGSA,A,1,,,,,,,,,,,,,25.5,25.5,25.5*02
$BDGSA,A,1,,,,,,,,,,,,,25.5,25.5,25.5*13
$GPGSV,1,1,03,05,,,30,15,,,36,21,,,31*7C
$BDGSV,1,1,04,06,,,38,13,,,38,19,,,36,20,,,38*6C
$GNRMC,072034.146,V,,,,,,,,,,M*51
$GNVTG,,,,,,,,,M*2D
$GNZDA,072034.146,,,,,*49
$GPTXT,01,01,01,ANTENNA OK*35
$GNGGA,072035.146,,,,,0,00,25.5,,,,,,*7A
$GNGLL,,,,,072035.146,V,M*67
$GPGSA,A,1,,,,,,,,,,,,,25.5,25.5,25.5*02
$BDGSA,A,1,,,,,,,,,,,,,25.5,25.5,25.5*13
$GPGSV,1,1,03,05,,,30,15,,,35,21,,,31*7F
$BDGSV,1,1,04,06,,,38,13,,,39,19,,,36,20,,,38*6D
$GNRMC,072035.146,V,,,,,,,,,,M*50
$GNVTG,,,,,,,,,M*2D
$GNZDA,072035.146,,,,,*48
$GPTXT,01,01,01,ANTENNA OK*35
$GNGGA,072036.146,,,,,0,00,25.5,,,,,,*79
$GNGLL,,,,,072036.146,V,M*64
$GPGSA,A,1,,,,,,,,,,,,,25.5,25.5,25.5*02
$BDGSA,A,1,,,,,,,,,,,,,25.5,25.5,25.5*13
$GPGSV,1,1,03,05,,,30,15,,,35,21,,,31*7F
$BDGSV,1,1,04,06,,,38,13,,,39,19,,,36,20,,,38*6D
$GNRMC,072036.146,V,,,,,,,,,,M*53
$GNVTG,,,,,,,,,M*2D
$GNZDA,072036.146,,,,,*4B
$GPTXT,01,01,01,ANTENNA OK*35
$GNGGA,072037.146,,,,,0,00,25.5,,,,,,*78
$GNGLL,,,,,072037.146,V,M*65
$GPGSA,A,1,,,,,,,,,,,,,25.5,25.5,25.5*02
$BDGSA,A,1,,,,,,,,,,,,,25.5,25.5,25.5*13
$GPGSV,1,1,03,05,,,31,15,,,35,21,,,31*7E
$BDGSV,1,1,04,06,,,38,13,,,39,19,,,36,20,,,38*6D
$GNRMC,072037.146,V,,,,,,,,,,M*52
$GNVTG,,,,,,,,,M*2D
$GNZDA,072037.146,,,,,*4A
$GPTXT,01,01,01,ANTENNA OK*35
$GNGGA,072038.146,,,,,0,00,25.5,,,,,,*77
$GNGLL,,,,,072038.146,V,M*6A
$GPGSA,A,1,,,,,,,,,,,,,25.5,25.5,25.5*02
$BDGSA,A,1,,,,,,,,,,,,,25.5,25.5,25.5*13
$GPGSV,1,1,03,05,,,31,15,,,35,21,,,31*7E
$BDGSV,1,1,04,06,,,38,13,,,39,19,,,36,20,,,39*6C
$GNRMC,072038.146,V,,,,,,,,,,M*5D
$GNVTG,,,,,,,,,M*2D
$GNZDA,072038.146,,,,,*45
$GPTXT,01,01,01,ANTENNA OK*35
$GNGGA,072039.146,,,,,0,00,25.5,,,,,,*76
$GNGLL,,,,,072039.146,V,M*6B
$GPGSA,A,1,,,,,,,,,,,,,25.5,25.5,25.5*02
$BDGSA,A,1,,,,,,,,,,,,,25.5,25.5,25.5*13
$GPGSV,1,1,03,05,,,31,15,,,35,21,,,32*7D
$BDGSV,1,1,04,06,,,38,13,,,39,19,,,36,20,,,39*6C
$GNRMC,072039.146,V,,,,,,,,,,M*5C
$GNVTG,,,,,,,,,M*2D
$GNZDA,072039.146,,,,,*44
$GPTXT,01,01,01,ANTENNA OK*35
$GNGGA,072040.146,,,,,0,00,25.5,,,,,,*78
$GNGLL,,,,,072040.146,V,M*65
$GPGSA,A,1,,,,,,,,,,,,,25.5,25.5,25.5*02
$BDGSA,A,1,,,,,,,,,,,,,25.5,25.5,25.5*13
$GPGSV,1,1,03,05,,,31,15,,,37,21,,,32*7F
$BDGSV,1,1,04,06,,,38,13,,,39,19,,,35,20,,,39*6F
$GNRMC,072040.146,V,,,,,,,,,,M*52
$GNVTG,,,,,,,,,M*2D
$GNZDA,072040.146,,,,,*4A
$GPTXT,01,01,01,ANTENNA OK*35
$GNGGA,072041.146,,,,,0,00,25.5,,,,,,*79
$GNGLL,,,,,072041.146,V,M*64
$GPGSA,A,1,,,,,,,,,,,,,25.5,25.5,25.5*02
$BDGSA,A,1,,,,,,,,,,,,,25.5,25.5,25.5*13
$GPGSV,1,1,03,05,,,31,15,,,35,21,,,32*7D
$BDGSV,1,1,04,06,,,38,13,,,39,19,,,37,20,,,39*6D
$GNRMC,072041.146,V,,,,,,,,,,M*53
$GNVTG,,,,,,,,,M*2D
$GNZDA,072041.146,,,,,*4B
$GPTXT,01,01,01,ANTENNA OK*35
$GNGGA,072042.146,,,,,0,00,25.5,,,,,,*7A
$GNGLL,,,,,072042.146,V,M*67
$GPGSA,A,1,,,,,,,,,,,,,25.5,25.5,25.5*02
$BDGSA,A,1,,,,,,,,,,,,,25.5,25.5,25.5*13
$GPGSV,1,1,04,05,,,31,15,,,35,21,,,32,35,,,26*78
$BDGSV,2,1,05,04,,,31,06,,,38,13,,,39,19,,,37*61
$BDGSV,2,2,05,20,,,39*65
$GNRMC,072042.146,V,,,,,,,,,,M*50
$GNVTG,,,,,,,,,M*2D
$GNZDA,072042.146,,,,,*48
$GPTXT,01,01,01,ANTENNA OK*35
$GNGGA,072043.146,,,,,0,00,25.5,,,,,,*7B
$GNGLL,,,,,072043.146,V,M*66
$GPGSA,A,1,,,,,,,,,,,,,25.5,25.5,25.5*02
$BDGSA,A,1,,,,,,,,,,,,,25.5,25.5,25.5*13
$GPGSV,1,1,04,05,,,31,15,,,35,21,,,32,35,,,26*78
$BDGSV,2,1,05,04,,,31,06,,,36,13,,,38,19,,,37*6E
$BDGSV,2,2,05,20,,,38*64
$GNRMC,072043.146,V,,,,,,,,,,M*51
$GNVTG,,,,,,,,,M*2D
$GNZDA,072043.146,,,,,*49
$GPTXT,01,01,01,ANTENNA OK*35
$GNGGA,072044.146,,,,,0,00,25.5,,,,,,*7C
$GNGLL,,,,,072044.146,V,M*61
$GPGSA,A,1,,,,,,,,,,,,,25.5,25.5,25.5*02
$BDGSA,A,1,,,,,,,,,,,,,25.5,25.5,25.5*13
$GPGSV,1,1,04,05,,,31,15,,,35,21,,,32,35,,,28*76
$BDGSV,2,1,05,04,,,31,06,,,36,13,,,38,19,,,36*6F
$BDGSV,2,2,05,20,,,38*64
$GNRMC,072044.146,V,,,,,,,,,,M*56
$GNVTG,,,,,,,,,M*2D
$GNZDA,072044.146,,,,,*4E
$GPTXT,01,01,01,ANTENNA OK*35
$GNGGA,072045.146,,,,,0,00,25.5,,,,,,*7D
$GNGLL,,,,,072045.146,V,M*60
$GPGSA,A,1,,,,,,,,,,,,,25.5,25.5,25.5*02
$BDGSA,A,1,,,,,,,,,,,,,25.5,25.5,25.5*13
$GPGSV,1,1,04,05,,,31,15,,,35,21,,,33,35,,,28*77
$BDGSV,2,1,05,04,,,31,06,,,37,13,,,39,19,,,36*6F
$BDGSV,2,2,05,20,,,38*64
$GNRMC,072045.146,V,,,,,,,,,,M*57
$GNVTG,,,,,,,,,M*2D
$GNZDA,072045.146,,,,,*4F
$GPTXT,01,01,01,ANTENNA OK*35
$GNGGA,072046.146,,,,,0,00,25.5,,,,,,*7E
$GNGLL,,,,,072046.146,V,M*63
$GPGSA,A,1,,,,,,,,,,,,,25.5,25.5,25.5*02
$BDGSA,A,1,,,,,,,,,,,,,25.5,25.5,25.5*13
$GPGSV,1,1,04,05,,,31,15,,,37,21,,,35,35,,,28*73
$BDGSV,2,1,05,04,,,31,06,,,37,13,,,39,19,,,36*6F
$BDGSV,2,2,05,20,,,39*65
$GNRMC,072046.146,V,,,,,,,,,,M*54
$GNVTG,,,,,,,,,M*2D
$GNZDA,072046.146,,,,,*4C
$GPTXT,01,01,01,ANTENNA OK*35
$GNGGA,072047.146,,,,,0,00,25.5,,,,,,*7F
$GNGLL,,,,,072047.146,V,M*62
$GPGSA,A,1,,,,,,,,,,,,,25.5,25.5,25.5*02
$BDGSA,A,1,,,,,,,,,,,,,25.5,25.5,25.5*13
$GPGSV,1,1,04,05,,,31,15,,,37,21,,,35,35,,,28*73
$BDGSV,2,1,06,04,,,31,06,,,37,08,,,29,13,,,39*62
$BDGSV,2,2,06,19,,,36,20,,,39*6B
$GNRMC,072047.146,V,,,,,,,,,,M*55
$GNVTG,,,,,,,,,M*2D
$GNZDA,072047.146,,,,,*4D
$GPTXT,01,01,01,ANTENNA OK*35
$GNGGA,072048.146,,,,,0,00,25.5,,,,,,*70
$GNGLL,,,,,072048.146,V,M*6D
$GPGSA,A,1,,,,,,,,,,,,,25.5,25.5,25.5*02
$BDGSA,A,1,,,,,,,,,,,,,25.5,25.5,25.5*13
$GPGSV,1,1,04,05,,,31,15,,,36,21,,,35,35,,,28*72
$BDGSV,2,1,06,04,,,31,06,,,37,08,,,29,13,,,39*62
$BDGSV,2,2,06,19,,,36,20,,,39*6B
$GNRMC,072048.146,V,,,,,,,,,,M*5A
$GNVTG,,,,,,,,,M*2D
$GNZDA,072048.146,,,,,*42
$GPTXT,01,01,01,ANTENNA OK*35
$GNGGA,072049.146,,,,,0,00,25.5,,,,,,*71
$GNGLL,,,,,072049.146,V,M*6C
$GPGSA,A,1,,,,,,,,,,,,,25.5,25.5,25.5*02
$BDGSA,A,1,,,,,,,,,,,,,25.5,25.5,25.5*13
$GPGSV,1,1,04,05,,,34,15,,,36,21,,,35,35,,,28*77
$BDGSV,2,1,06,04,,,31,06,,,37,08,,,31,13,,,39*6B
$BDGSV,2,2,06,19,,,36,20,,,39*6B
$GNRMC,072049.146,V,,,,,,,,,,M*5B
$GNVTG,,,,,,,,,M*2D
$GNZDA,072049.146,,,,,*43
$GPTXT,01,01,01,ANTENNA OK*35
$GNGGA,072050.146,,,,,0,00,25.5,,,,,,*79
$GNGLL,,,,,072050.146,V,M*64
$GPGSA,A,1,,,,,,,,,,,,,25.5,25.5,25.5*02
$BDGSA,A,1,,,,,,,,,,,,,25.5,25.5,25.5*13
$GPGSV,1,1,04,05,,,34,15,,,35,21,,,34,35,,,28*75
$BDGSV,2,1,06,04,,,31,06,,,37,08,,,31,13,,,39*6B
$BDGSV,2,2,06,19,,,36,20,,,38*6A
$GNRMC,072050.146,V,,,,,,,,,,M*53
$GNVTG,,,,,,,,,M*2D
$GNZDA,072050.146,,,,,*4B
$GPTXT,01,01,01,ANTENNA OK*35
$GNGGA,072051.146,,,,,0,00,25.5,,,,,,*78
$GNGLL,,,,,072051.146,V,M*65
$GPGSA,A,1,,,,,,,,,,,,,25.5,25.5,25.5*02
$BDGSA,A,1,,,,,,,,,,,,,25.5,25.5,25.5*13
$GPGSV,1,1,04,05,,,34,15,,,35,21,,,32,35,,,28*73
$BDGSV,2,1,06,04,,,29,06,,,37,08,,,31,13,,,38*63
$BDGSV,2,2,06,19,,,35,20,,,35*64
$GNRMC,072051.146,V,,,,,,,,,,M*52
$GNVTG,,,,,,,,,M*2D
$GNZDA,072051.146,,,,,*4A
$GPTXT,01,01,01,ANTENNA OK*35
$GNGGA,072052.146,,,,,0,00,25.5,,,,,,*7B
$GNGLL,,,,,072052.146,V,M*66
$GPGSA,A,1,,,,,,,,,,,,,25.5,25.5,25.5*02
$BDGSA,A,1,,,,,,,,,,,,,25.5,25.5,25.5*13
$GPGSV,1,1,04,05,,,32,15,,,33,21,,,32,35,,,25*7E
$BDGSV,2,1,06,04,,,29,06,,,37,08,,,30,13,,,38*62
$BDGSV,2,2,06,19,,,35,20,,,32*63
$GNRMC,072052.146,V,,,,,,,,,,M*51
$GNVTG,,,,,,,,,M*2D
$GNZDA,072052.146,,,,,*49
$GPTXT,01,01,01,ANTENNA OK*35
$GNGGA,072053.146,,,,,0,00,25.5,,,,,,*7A
$GNGLL,,,,,072053.146,V,M*67
$GPGSA,A,1,,,,,,,,,,,,,25.5,25.5,25.5*02
$BDGSA,A,1,,,,,,,,,,,,,25.5,25.5,25.5*13
$GPGSV,1,1,04,05,,,32,15,,,31,21,,,29,35,,,25*76
$BDGSV,2,1,06,04,,,29,06,,,36,08,,,32,13,,,38*61
$BDGSV,2,2,06,19,,,35,20,,,28*68
$GNRMC,072053.146,V,,,,,,,,,,M*50
$GNVTG,,,,,,,,,M*2D
$GNZDA,072053.146,,,,,*48
$GPTXT,01,01,01,ANTENNA OK*35
$GNGGA,072054.146,,,,,0,00,25.5,,,,,,*7D
$GNGLL,,,,,072054.146,V,M*60
$GPGSA,A,1,,,,,,,,,,,,,25.5,25.5,25.5*02
$BDGSA,A,1,,,,,,,,,,,,,25.5,25.5,25.5*13
$GPGSV,1,1,04,05,,,27,15,,,39,21,,,32,35,,,25*70
$BDGSV,2,1,06,04,,,29,06,,,34,08,,,32,13,,,38*63
$BDGSV,2,2,06,19,,,35,20,,,28*68
$GNRMC,072054.146,V,,,,,,,,,,M*57
$GNVTG,,,,,,,,,M*2D
$GNZDA,072054.146,,,,,*4F
$GPTXT,01,01,01,ANTENNA OK*35
$GNGGA,072055.146,,,,,0,00,25.5,,,,,,*7C
$GNGLL,,,,,072055.146,V,M*61
$GPGSA,A,1,,,,,,,,,,,,,25.5,25.5,25.5*02
$BDGSA,A,1,,,,,,,,,,,,,25.5,25.5,25.5*13
$GPGSV,1,1,04,05,,,27,15,,,39,21,,,28,35,,,25*7B
$BDGSV,2,1,06,04,,,29,06,,,37,08,,,33,13,,,36*6F
$BDGSV,2,2,06,19,,,32,20,,,28*6F
$GNRMC,072055.146,V,,,,,,,,,,M*56
$GNVTG,,,,,,,,,M*2D
$GNZDA,072055.146,,,,,*4E
$GPTXT,01,01,01,ANTENNA OK*35
$GNGGA,072056.146,,,,,0,00,25.5,,,,,,*7F
$GNGLL,,,,,072056.146,V,M*62
$GPGSA,A,1,,,,,,,,,,,,,25.5,25.5,25.5*02
$BDGSA,A,1,,,,,,,,,,,,,25.5,25.5,25.5*13
$GPGSV,2,1,05,05,,,27,15,,,37,21,,,28,34,,,29*7A
$GPGSV,2,2,05,35,,,23*7B
$BDGSV,2,1,06,04,,,21,06,,,37,08,,,33,13,,,33*62
$BDGSV,2,2,06,19,,,32,20,,,24*63
$GNRMC,072056.146,V,,,,,,,,,,M*55
$GNVTG,,,,,,,,,M*2D
$GNZDA,072056.146,,,,,*4D
$GPTXT,01,01,01,ANTENNA OK*35
$GNGGA,072057.146,,,,,0,00,25.5,,,,,,*7E
$GNGLL,,,,,072057.146,V,M*63
$GPGSA,A,1,,,,,,,,,,,,,25.5,25.5,25.5*02
$BDGSA,A,1,,,,,,,,,,,,,25.5,25.5,25.5*13
$GPGSV,2,1,05,05,,,27,15,,,35,21,,,30,34,,,21*79
$GPGSV,2,2,05,35,,,23*7B
$BDGSV,2,1,06,04,,,21,06,,,32,08,,,33,13,,,33*67
$BDGSV,2,2,06,19,,,32,20,,,24*63
$GNRMC,072057.146,V,,,,,,,,,,M*54
$GNVTG,,,,,,,,,M*2D
$GNZDA,072057.146,,,,,*4C
$GPTXT,01,01,01,ANTENNA OK*35
$GNGGA,072058.146,,,,,0,00,25.5,,,,,,*71
$GNGLL,,,,,072058.146,V,M*6C
$GPGSA,A,1,,,,,,,,,,,,,25.5,25.5,25.5*02
$BDGSA,A,1,,,,,,,,,,,,,25.5,25.5,25.5*13
$GPGSV,2,1,05,05,,,28,15,,,38,21,,,30,34,,,28*72
$GPGSV,2,2,05,35,,,23*7B
$BDGSV,2,1,06,04,,,21,06,,,32,08,,,34,13,,,33*60
$BDGSV,2,2,06,19,,,31,20,,,24*60
$GNRMC,072058.146,V,,,,,,,,,,M*5B
$GNVTG,,,,,,,,,M*2D
$GNZDA,072058.146,,,,,*43
$GPTXT,01,01,01,ANTENNA OK*35
$GNGGA,072059.146,,,,,0,00,25.5,,,,,,*70
$GNGLL,,,,,072059.146,V,M*6D
$GPGSA,A,1,,,,,,,,,,,,,25.5,25.5,25.5*02
$BDGSA,A,1,,,,,,,,,,,,,25.5,25.5,25.5*13
$GPGSV,2,1,05,05,,,31,15,,,39,21,,,30,34,,,28*7B
$GPGSV,2,2,05,35,,,23*7B
$BDGSV,2,1,06,04,,,21,06,,,32,08,,,36,13,,,33*62
$BDGSV,2,2,06,19,,,27,20,,,24*67
$GNRMC,072059.146,V,,,,,,,290918,,,M*51
$GNVTG,,,,,,,,,M*2D
$GNZDA,072059.146,29,09,2018,00,00*4B
$GPTXT,01,01,01,ANTENNA OK*35
$GNGGA,072100.146,,,,,0,00,25.5,,,,,,*7D
$GNGLL,,,,,072100.146,V,M*60
$GPGSA,A,1,,,,,,,,,,,,,25.5,25.5,25.5*02
$BDGSA,A,1,,,,,,,,,,,,,25.5,25.5,25.5*13
$GPGSV,2,1,05,05,,,25,15,,,39,21,,,29,34,,,21*7F
$GPGSV,2,2,05,35,,,23*7B
$BDGSV,2,1,06,04,,,21,06,,,32,08,,,35,13,,,33*61
$BDGSV,2,2,06,19,,,36,20,,,24*67
$GNRMC,072100.146,V,,,,,,,290918,,,M*5C
$GNVTG,,,,,,,,,M*2D
$GNZDA,072100.146,29,09,2018,00,00*46
$GPTXT,01,01,01,ANTENNA OK*35
$GNGGA,072101.146,,,,,0,00,25.5,,,,,,*7C
$GNGLL,,,,,072101.146,V,M*61
$GPGSA,A,1,,,,,,,,,,,,,25.5,25.5,25.5*02
$BDGSA,A,1,,,,,,,,,,,,,25.5,25.5,25.5*13
$GPGSV,2,1,05,05,,,25,15,,,39,21,,,29,34,,,21*7F
$GPGSV,2,2,05,35,,,23*7B
$BDGSV,2,1,06,04,,,21,06,,,32,08,,,35,13,,,33*61
$BDGSV,2,2,06,19,,,33,20,,,24*62
$GNRMC,072101.146,V,,,,,,,290918,,,M*5D
$GNVTG,,,,,,,,,M*2D
$GNZDA,072101.146,29,09,2018,00,00*47
$GPTXT,01,01,01,ANTENNA OK*35
$GNGGA,072102.146,,,,,0,00,25.5,,,,,,*7F
$GNGLL,,,,,072102.146,V,M*62
$GPGSA,A,1,,,,,,,,,,,,,25.5,25.5,25.5*02
$BDGSA,A,1,,,,,,,,,,,,,25.5,25.5,25.5*13
$GPGSV,2,1,05,05,,,25,15,,,39,21,,,29,34,,,21*7F
$GPGSV,2,2,05,35,,,23*7B
$BDGSV,2,1,06,04,,,21,06,,,32,08,,,35,13,,,33*61
$BDGSV,2,2,06,19,,,33,20,,,24*62
$GNRMC,072102.146,V,,,,,,,290918,,,M*5E
$GNVTG,,,,,,,,,M*2D
$GNZDA,072102.146,29,09,2018,00,00*44
$GPTXT,01,01,01,ANTENNA OK*35
$GNGGA,072103.146,,,,,0,00,25.5,,,,,,*7E
$GNGLL,,,,,072103.146,V,M*63
$GPGSA,A,1,,,,,,,,,,,,,25.5,25.5,25.5*02
$BDGSA,A,1,,,,,,,,,,,,,25.5,25.5,25.5*13
$GPGSV,2,1,06,05,,,31,15,,,38,21,,,30,34,,,21*70
$GPGSV,2,2,06,35,,,21,36,,,30*7C
$BDGSV,2,1,06,04,,,21,06,,,32,08,,,35,13,,,33*61
$BDGSV,2,2,06,19,,,30,20,,,25*60
$GNRMC,072103.146,V,,,,,,,290918,,,M*5F
$GNVTG,,,,,,,,,M*2D
$GNZDA,072103.146,29,09,2018,00,00*45
$GPTXT,01,01,01,ANTENNA OK*35
$GNGGA,072104.146,,,,,0,00,25.5,,,,,,*79
$GNGLL,,,,,072104.146,V,M*64
$GPGSA,A,1,,,,,,,,,,,,,25.5,25.5,25.5*02
$BDGSA,A,1,,,,,,,,,,,,,25.5,25.5,25.5*13
$GPGSV,2,1,06,05,,,31,15,,,38,21,,,30,34,,,21*70
$GPGSV,2,2,06,35,,,21,36,,,30*7C
$BDGSV,2,1,06,04,,,21,06,,,32,08,,,36,13,,,33*62
$BDGSV,2,2,06,19,,,30,20,,,25*60
$GNRMC,072104.146,V,,,,,,,290918,,,M*58
$GNVTG,,,,,,,,,M*2D
$GNZDA,072104.146,29,09,2018,00,00*42
$GPTXT,01,01,01,ANTENNA OK*35
$GNGGA,072105.146,,,,,0,00,25.5,,,,,,*78
$GNGLL,,,,,072105.146,V,M*65
$GPGSA,A,1,,,,,,,,,,,,,25.5,25.5,25.5*02
$BDGSA,A,1,,,,,,,,,,,,,25.5,25.5,25.5*13
$GPGSV,2,1,06,05,,,28,15,,,37,21,,,30,34,,,21*77
$GPGSV,2,2,06,35,,,21,36,,,30*7C
$BDGSV,2,1,06,04,,,21,06,,,31,08,,,36,13,,,33*61
$BDGSV,2,2,06,19,,,30,20,,,28*6D
$GNRMC,072105.146,V,,,,,,,290918,,,M*59
$GNVTG,,,,,,,,,M*2D
$GNZDA,072105.146,29,09,2018,00,00*43
$GPTXT,01,01,01,ANTENNA OK*35
$GNGGA,072106.146,,,,,0,00,25.5,,,,,,*7B
$GNGLL,,,,,072106.146,V,M*66
$GPGSA,A,1,,,,,,,,,,,,,25.5,25.5,25.5*02
$BDGSA,A,1,,,,,,,,,,,,,25.5,25.5,25.5*13
$GPGSV,2,1,06,05,,,28,15,,,37,21,,,31,34,,,21*76
$GPGSV,2,2,06,35,,,21,36,,,30*7C
$BDGSV,2,1,06,04,,,21,06,,,31,08,,,36,13,,,33*61
$BDGSV,2,2,06,19,,,30,20,,,28*6D
$GNRMC,072106.146,V,,,,,,,290918,,,M*5A
$GNVTG,,,,,,,,,M*2D
$GNZDA,072106.146,29,09,2018,00,00*40
$GPTXT,01,01,01,ANTENNA OK*35
$GNGGA,072107.146,,,,,0,00,25.5,,,,,,*7A
$GNGLL,,,,,072107.146,V,M*67
$GPGSA,A,1,,,,,,,,,,,,,25.5,25.5,25.5*02
$BDGSA,A,1,,,,,,,,,,,,,25.5,25.5,25.5*13
$GPGSV,2,1,06,05,,,30,15,,,37,21,,,31,34,,,21*7F
$GPGSV,2,2,06,35,,,21,36,,,31*7D
$BDGSV,2,1,06,04,,,23,06,,,32,08,,,36,13,,,33*60
$BDGSV,2,2,06,19,,,29,20,,,28*65
$GNRMC,072107.146,V,,,,,,,290918,,,M*5B
$GNVTG,,,,,,,,,M*2D
$GNZDA,072107.146,29,09,2018,00,00*41
$GPTXT,01,01,01,ANTENNA OK*35
$GNGGA,072108.146,,,,,0,00,25.5,,,,,,*75
$GNGLL,,,,,072108.146,V,M*68
$GPGSA,A,1,,,,,,,,,,,,,25.5,25.5,25.5*02
$BDGSA,A,1,,,,,,,,,,,,,25.5,25.5,25.5*13
$GPGSV,2,1,06,05,,,30,15,,,36,21,,,31,34,,,21*7E
$GPGSV,2,2,06,35,,,21,36,,,31*7D
$BDGSV,2,1,06,04,,,23,06,,,34,08,,,36,13,,,33*66
$BDGSV,2,2,06,19,,,29,20,,,29*64
$GNRMC,072108.146,V,,,,,,,290918,,,M*54
$GNVTG,,,,,,,,,M*2D
$GNZDA,072108.146,29,09,2018,00,00*4E
$GPTXT,01,01,01,ANTENNA OK*35
$GNGGA,072109.146,,,,,0,00,25.5,,,,,,*74
$GNGLL,,,,,072109.146,V,M*69
$GPGSA,A,1,,,,,,,,,,,,,25.5,25.5,25.5*02
$BDGSA,A,1,,,,,,,,,,,,,25.5,25.5,25.5*13
$GPGSV,2,1,06,05,,,30,15,,,36,21,,,30,34,,,21*7F
$GPGSV,2,2,06,35,,,21,36,,,32*7E
$BDGSV,2,1,06,04,,,23,06,,,34,08,,,35,13,,,35*63
$BDGSV,2,2,06,19,,,29,20,,,29*64
$GNRMC,072109.146,V,,,,,,,290918,,,M*55
$GNVTG,,,,,,,,,M*2D
$GNZDA,072109.146,29,09,2018,00,00*4F
$GPTXT,01,01,01,ANTENNA OK*35
$GNGGA,072110.146,,,,,0,00,25.5,,,,,,*7C
$GNGLL,,,,,072110.146,V,M*61
$GPGSA,A,1,,,,,,,,,,,,,25.5,25.5,25.5*02
$BDGSA,A,1,,,,,,,,,,,,,25.5,25.5,25.5*13
$GPGSV,2,1,06,05,,,30,15,,,37,21,,,26,34,,,21*79
$GPGSV,2,2,06,35,,,21,36,,,32*7E
$BDGSV,2,1,06,04,,,23,06,,,34,08,,,35,13,,,35*63
$BDGSV,2,2,06,19,,,29,20,,,29*64
$GNRMC,072110.146,V,,,,,,,290918,,,M*5D
$GNVTG,,,,,,,,,M*2D
$GNZDA,072110.146,29,09,2018,00,00*47
$GPTXT,01,01,01,ANTENNA OK*35
$GNGGA,072111.146,,,,,0,00,25.5,,,,,,*7D
$GNGLL,,,,,072111.146,V,M*60
$GPGSA,A,1,,,,,,,,,,,,,25.5,25.5,25.5*02
$BDGSA,A,1,,,,,,,,,,,,,25.5,25.5,25.5*13
$GPGSV,2,1,06,05,,,29,15,,,37,21,,,30,34,,,22*75
$GPGSV,2,2,06,35,,,21,36,,,32*7E
$BDGSV,2,1,06,04,,,23,06,,,33,08,,,35,13,,,35*64
$BDGSV,2,2,06,19,,,29,20,,,29*64
$GNRMC,072111.146,V,,,,,,,290918,,,M*5C
$GNVTG,,,,,,,,,M*2D
$GNZDA,072111.146,29,09,2018,00,00*46
$GPTXT,01,01,01,ANTENNA OK*35
$GNGGA,072112.146,,,,,0,00,25.5,,,,,,*7E
$GNGLL,,,,,072112.146,V,M*63
$GPGSA,A,1,,,,,,,,,,,,,25.5,25.5,25.5*02
$BDGSA,A,1,,,,,,,,,,,,,25.5,25.5,25.5*13
$GPGSV,2,1,06,05,,,23,15,,,37,21,,,30,34,,,27*7A
$GPGSV,2,2,06,35,,,21,36,,,32*7E
$BDGSV,2,1,06,04,,,23,06,,,33,08,,,35,13,,,34*65
$BDGSV,2,2,06,19,,,29,20,,,28*65
$GNRMC,072112.146,V,,,,,,,290918,,,M*5F
$GNVTG,,,,,,,,,M*2D
$GNZDA,072112.146,29,09,2018,00,00*45
$GPTXT,01,01,01,ANTENNA OK*35
$GNGGA,072113.146,,,,,0,00,25.5,,,,,,*7F
$GNGLL,,,,,072113.146,V,M*62
$GPGSA,A,1,,,,,,,,,,,,,25.5,25.5,25.5*02
$BDGSA,A,1,,,,,,,,,,,,,25.5,25.5,25.5*13
$GPGSV,2,1,06,05,,,28,15,,,36,21,,,30,34,,,30*76
$GPGSV,2,2,06,35,,,21,36,,,32*7E
$BDGSV,2,1,06,04,,,23,06,,,33,08,,,35,13,,,34*65
$BDGSV,2,2,06,19,,,29,20,,,28*65
$GNRMC,072113.146,V,,,,,,,290918,,,M*5E
$GNVTG,,,,,,,,,M*2D
$GNZDA,072113.146,29,09,2018,00,00*44
$GPTXT,01,01,01,ANTENNA OK*35
$GNGGA,072114.146,,,,,0,00,25.5,,,,,,*78
$GNGLL,,,,,072114.146,V,M*65
$GPGSA,A,1,,,,,,,,,,,,,25.5,25.5,25.5*02
$BDGSA,A,1,,,,,,,,,,,,,25.5,25.5,25.5*13
$GPGSV,2,1,07,05,,,28,13,,,23,15,,,36,21,,,29*78
$GPGSV,2,2,07,34,,,30,35,,,21,36,,,32*7B
$BDGSV,2,1,06,04,,,23,06,,,33,08,,,35,13,,,34*65
$BDGSV,2,2,06,19,,,29,20,,,24*69
$GNRMC,072114.146,V,,,,,,,290918,,,M*59
$GNVTG,,,,,,,,,M*2D
$GNZDA,072114.146,29,09,2018,00,00*43
$GPTXT,01,01,01,ANTENNA OK*35
$GNGGA,072115.146,,,,,0,00,25.5,,,,,,*79
$GNGLL,,,,,072115.146,V,M*64
$GPGSA,A,1,,,,,,,,,,,,,25.5,25.5,25.5*02
$BDGSA,A,1,,,,,,,,,,,,,25.5,25.5,25.5*13
$GPGSV,2,1,07,05,,,28,13,,,23,15,,,36,21,,,29*78
$GPGSV,2,2,07,34,,,28,35,,,21,36,,,32*72
$BDGSV,2,1,06,04,,,23,06,,,33,08,,,35,13,,,34*65
$BDGSV,2,2,06,19,,,29,20,,,24*69
$GNRMC,072115.146,V,,,,,,,290918,,,M*58
$GNVTG,,,,,,,,,M*2D
$GNZDA,072115.146,29,09,2018,00,00*42
$GPTXT,01,01,01,ANTENNA OK*35
$GNGGA,072116.146,,,,,0,00,25.5,,,,,,*7A
$GNGLL,,,,,072116.146,V,M*67
$GPGSA,A,1,,,,,,,,,,,,,25.5,25.5,25.5*02
$BDGSA,A,1,,,,,,,,,,,,,25.5,25.5,25.5*13
$GPGSV,2,1,07,05,,,28,13,,,25,15,,,36,21,,,26*71
$GPGSV,2,2,07,34,,,28,35,,,21,36,,,32*72
$BDGSV,2,1,06,04,,,23,06,,,33,08,,,35,13,,,34*65
$BDGSV,2,2,06,19,,,29,20,,,24*69
$GNRMC,072116.146,V,,,,,,,290918,,,M*5B
$GNVTG,,,,,,,,,M*2D
$GNZDA,072116.146,29,09,2018,00,00*41
$GPTXT,01,01,01,ANTENNA OK*35
$GNGGA,072117.146,,,,,0,00,25.5,,,,,,*7B
$GNGLL,,,,,072117.146,V,M*66
$GPGSA,A,1,,,,,,,,,,,,,25.5,25.5,25.5*02
$BDGSA,A,1,,,,,,,,,,,,,25.5,25.5,25.5*13
$GPGSV,2,1,07,05,,,28,13,,,25,15,,,36,21,,,26*71
$GPGSV,2,2,07,34,,,26,35,,,21,36,,,31*7F
$BDGSV,2,1,06,04,,,23,06,,,33,08,,,35,13,,,34*65
$BDGSV,2,2,06,19,,,29,20,,,26*6B
$GNRMC,072117.146,V,,,,,,,290918,,,M*5A
$GNVTG,,,,,,,,,M*2D
$GNZDA,072117.146,29,09,2018,00,00*40
$GPTXT,01,01,01,ANTENNA OK*35
$GNGGA,072118.146,,,,,0,00,25.5,,,,,,*74
$GNGLL,,,,,072118.146,V,M*69
$GPGSA,A,1,,,,,,,,,,,,,25.5,25.5,25.5*02
$BDGSA,A,1,,,,,,,,,,,,,25.5,25.5,25.5*13
$GPGSV,2,1,07,05,,,28,13,,,25,15,,,36,21,,,26*71
$GPGSV,2,2,07,34,,,26,35,,,21,36,,,31*7F
$BDGSV,2,1,06,04,,,23,06,,,33,08,,,36,13,,,33*61
$BDGSV,2,2,06,19,,,29,20,,,29*64
$GNRMC,072118.146,V,,,,,,,290918,,,M*55
$GNVTG,,,,,,,,,M*2D
$GNZDA,072118.146,29,09,2018,00,00*4F
$GPTXT,01,01,01,ANTENNA OK*35
$GNGGA,072119.146,,,,,0,00,25.5,,,,,,*75
$GNGLL,,,,,072119.146,V,M*68
$GPGSA,A,1,,,,,,,,,,,,,25.5,25.5,25.5*02
$BDGSA,A,1,,,,,,,,,,,,,25.5,25.5,25.5*13
$GPGSV,2,1,07,05,,,28,13,,,25,15,,,40,21,,,28*7E
$GPGSV,2,2,07,34,,,26,35,,,21,36,,,32*7C
$BDGSV,2,1,06,04,,,23,06,,,33,08,,,36,13,,,33*61
$BDGSV,2,2,06,19,,,26,20,,,34*67
$GNRMC,072119.146,V,,,,,,,290918,,,M*54
$GNVTG,,,,,,,,,M*2D
$GNZDA,072119.146,29,09,2018,00,00*4E
$GPTXT,01,01,01,ANTENNA OK*35
$GNGGA,072120.146,,,,,0,00,25.5,,,,,,*7F
$GNGLL,,,,,072120.146,V,M*62
$GPGSA,A,1,,,,,,,,,,,,,25.5,25.5,25.5*02
$BDGSA,A,1,,,,,,,,,,,,,25.5,25.5,25.5*13
$GPGSV,2,1,07,05,,,28,13,,,25,15,,,40,21,,,31*76
$GPGSV,2,2,07,34,,,22,35,,,26,36,,,32*7F
$BDGSV,2,1,06,04,,,23,06,,,33,08,,,36,13,,,33*61
$BDGSV,2,2,06,19,,,26,20,,,28*6A
$GNRMC,072120.146,V,,,,,,,290918,,,M*5E
$GNVTG,,,,,,,,,M*2D
$GNZDA,072120.146,29,09,2018,00,00*44
$GPTXT,01,01,01,ANTENNA OK*35
$GNGGA,072121.146,,,,,0,00,25.5,,,,,,*7E
$GNGLL,,,,,072121.146,V,M*63
$GPGSA,A,1,,,,,,,,,,,,,25.5,25.5,25.5*02
$BDGSA,A,1,,,,,,,,,,,,,25.5,25.5,25.5*13
$GPGSV,2,1,07,05,,,28,13,,,25,15,,,39,21,,,31*78
$GPGSV,2,2,07,34,,,25,35,,,26,36,,,32*78
$BDGSV,2,1,07,01,,,34,04,,,23,06,,,33,08,,,35*67
$BDGSV,2,2,07,13,,,33,19,,,26,20,,,28*69
$GNRMC,072121.146,V,,,,,,,290918,,,M*5F
$GNVTG,,,,,,,,,M*2D
$GNZDA,072121.146,29,09,2018,00,00*45
$GPTXT,01,01,01,ANTENNA OK*35
$GNGGA,072122.146,,,,,0,00,25.5,,,,,,*7D
$GNGLL,,,,,072122.146,V,M*60
$GPGSA,A,1,,,,,,,,,,,,,25.5,25.5,25.5*02
$BDGSA,A,1,,,,,,,,,,,,,25.5,25.5,25.5*13
$GPGSV,2,1,07,05,,,28,13,,,25,15,,,39,21,,,31*78
$GPGSV,2,2,07,34,,,25,35,,,26,36,,,32*78
$BDGSV,2,1,07,01,,,34,04,,,24,06,,,33,08,,,35*60
$BDGSV,2,2,07,13,,,33,19,,,26,20,,,22*63
$GNRMC,072122.146,V,,,,,,,290918,,,M*5C
$GNVTG,,,,,,,,,M*2D
$GNZDA,072122.146,29,09,2018,00,00*46
$GPTXT,01,01,01,ANTENNA OK*35
$GNGGA,072123.146,,,,,0,00,25.5,,,,,,*7C
$GNGLL,,,,,072123.146,V,M*61
$GPGSA,A,1,,,,,,,,,,,,,25.5,25.5,25.5*02
$BDGSA,A,1,,,,,,,,,,,,,25.5,25.5,25.5*13
$GPGSV,2,1,07,05,,,26,13,,,25,15,,,38,21,,,31*77
$GPGSV,2,2,07,34,,,29,35,,,26,36,,,32*74
$BDGSV,2,1,07,01,,,34,04,,,24,06,,,32,08,,,35*61
$BDGSV,2,2,07,13,,,33,19,,,26,20,,,22*63
$GNRMC,072123.146,V,,,,,,,290918,,,M*5D
$GNVTG,,,,,,,,,M*2D
$GNZDA,072123.146,29,09,2018,00,00*47
$GPTXT,01,01,01,ANTENNA OK*35
$GNGGA,072124.146,,,,,0,00,25.5,,,,,,*7B
$GNGLL,,,,,072124.146,V,M*66
$GPGSA,A,1,,,,,,,,,,,,,25.5,25.5,25.5*02
$BDGSA,A,1,,,,,,,,,,,,,25.5,25.5,25.5*13
$GPGSV,2,1,07,05,,,26,13,,,22,15,,,38,21,,,30*71
$GPGSV,2,2,07,34,,,34,35,,,26,36,,,32*78
$BDGSV,2,1,07,01,,,34,04,,,24,06,,,32,08,,,35*61
$BDGSV,2,2,07,13,,,33,19,,,26,20,,,25*64
$GNRMC,072124.146,V,,,,,,,290918,,,M*5A
$GNVTG,,,,,,,,,M*2D
$GNZDA,072124.146,29,09,2018,00,00*40
$GPTXT,01,01,01,ANTENNA OK*35
$GNGGA,072125.146,,,,,0,00,25.5,,,,,,*7A
$GNGLL,,,,,072125.146,V,M*67
$GPGSA,A,1,,,,,,,,,,,,,25.5,25.5,25.5*02
$BDGSA,A,1,,,,,,,,,,,,,25.5,25.5,25.5*13
$GPGSV,2,1,07,05,,,26,13,,,22,15,,,38,21,,,30*71
$GPGSV,2,2,07,34,,,30,35,,,26,36,,,32*7C
$BDGSV,2,1,07,01,,,34,04,,,24,06,,,32,08,,,35*61
$BDGSV,2,2,07,13,,,33,19,,,26,20,,,27*66
$GNRMC,072125.146,V,,,,,,,290918,,,M*5B
$GNVTG,,,,,,,,,M*2D
$GNZDA,072125.146,29,09,2018,00,00*41
$GPTXT,01,01,01,ANTENNA OK*35
$GNGGA,072126.146,,,,,0,00,25.5,,,,,,*79
$GNGLL,,,,,072126.146,V,M*64
$GPGSA,A,1,,,,,,,,,,,,,25.5,25.5,25.5*02
$BDGSA,A,1,,,,,,,,,,,,,25.5,25.5,25.5*13
$GPGSV,2,1,08,05,,,26,13,,,22,15,,,38,21,,,31*7F
$GPGSV,2,2,08,29,,,26,34,,,30,35,,,26,36,,,32*7C
$BDGSV,2,1,07,01,,,34,04,,,24,06,,,32,08,,,35*61
$BDGSV,2,2,07,13,,,33,19,,,26,20,,,27*66
$GNRMC,072126.146,V,,,,,,,290918,,,M*58
$GNVTG,,,,,,,,,M*2D
$GNZDA,072126.146,29,09,2018,00,00*42
$GPTXT,01,01,01,ANTENNA OK*35
$GNGGA,072127.146,,,,,0,00,25.5,,,,,,*78
$GNGLL,,,,,072127.146,V,M*65
$GPGSA,A,1,,,,,,,,,,,,,25.5,25.5,25.5*02
$BDGSA,A,1,,,,,,,,,,,,,25.5,25.5,25.5*13
$GPGSV,2,1,08,05,,,26,13,,,22,15,,,38,21,,,31*7F
$GPGSV,2,2,08,29,,,26,34,,,27,35,,,25,36,,,32*79
$BDGSV,2,1,07,01,,,34,04,,,24,06,,,32,08,,,36*62
$BDGSV,2,2,07,13,,,33,19,,,26,20,,,27*66
$GNRMC,072127.146,V,,,,,,,290918,,,M*59
$GNVTG,,,,,,,,,M*2D
$GNZDA,072127.146,29,09,2018,00,00*43
$GPTXT,01,01,01,ANTENNA OK*35
$GNGGA,072128.146,,,,,0,00,25.5,,,,,,*77
$GNGLL,,,,,072128.146,V,M*6A
$GPGSA,A,1,,,,,,,,,,,,,25.5,25.5,25.5*02
$BDGSA,A,1,,,,,,,,,,,,,25.5,25.5,25.5*13
$GPGSV,2,1,08,05,,,26,13,,,22,15,,,38,21,,,31*7F
$GPGSV,2,2,08,29,,,26,34,,,27,35,,,25,36,,,32*79
$BDGSV,2,1,07,01,,,34,04,,,24,06,,,32,08,,,36*62
$BDGSV,2,2,07,13,,,33,19,,,30,20,,,23*65
$GNRMC,072128.146,V,,,,,,,290918,,,M*56
$GNVTG,,,,,,,,,M*2D
$GNZDA,072128.146,29,09,2018,00,00*4C
$GPTXT,01,01,01,ANTENNA OK*35
$GNGGA,072129.146,,,,,0,00,25.5,,,,,,*76
$GNGLL,,,,,072129.146,V,M*6B
$GPGSA,A,1,,,,,,,,,,,,,25.5,25.5,25.5*02
$BDGSA,A,1,,,,,,,,,,,,,25.5,25.5,25.5*13
$GPGSV,2,1,08,05,,,25,13,,,19,15,,,38,21,,,31*74
$GPGSV,2,2,08,29,,,26,34,,,27,35,,,25,36,,,32*79
$BDGSV,2,1,07,01,,,34,04,,,24,06,,,32,08,,,36*62
$BDGSV,2,2,07,13,,,33,19,,,30,20,,,23*65
$GNRMC,072129.146,V,,,,,,,290918,,,M*57
$GNVTG,,,,,,,,,M*2D
$GNZDA,072129.146,29,09,2018,00,00*4D
$GPTXT,01,01,01,ANTENNA OK*35
$GNGGA,072130.146,,,,,0,00,25.5,,,,,,*7E
$GNGLL,,,,,072130.146,V,M*63
$GPGSA,A,1,,,,,,,,,,,,,25.5,25.5,25.5*02
$BDGSA,A,1,,,,,,,,,,,,,25.5,25.5,25.5*13
$GPGSV,2,1,08,05,,,25,13,,,19,15,,,37,21,,,31*7B
$GPGSV,2,2,08,29,,,26,34,,,27,35,,,21,36,,,32*7D
$BDGSV,2,1,07,01,,,34,04,,,24,06,,,32,08,,,36*62
$BDGSV,2,2,07,13,,,33,19,,,30,20,,,23*65
$GNRMC,072130.146,V,,,,,,,290918,,,M*5F
$GNVTG,,,,,,,,,M*2D
$GNZDA,072130.146,29,09,2018,00,00*45
$GPTXT,01,01,01,ANTENNA OK*35
$GNGGA,072131.146,,,,,0,00,25.5,,,,,,*7F
$GNGLL,,,,,072131.146,V,M*62
$GPGSA,A,1,,,,,,,,,,,,,25.5,25.5,25.5*02
$BDGSA,A,1,,,,,,,,,,,,,25.5,25.5,25.5*13
$GPGSV,2,1,08,05,,,25,13,,,19,15,,,37,21,,,31*7B
$GPGSV,2,2,08,29,,,26,34,,,25,35,,,21,36,,,32*7F
$BDGSV,2,1,07,01,,,34,04,,,24,06,,,32,08,,,36*62
$BDGSV,2,2,07,13,,,33,19,,,30,20,,,25*63
$GNRMC,072131.146,V,,,,,,,290918,,,M*5E
$GNVTG,,,,,,,,,M*2D
$GNZDA,072131.146,29,09,2018,00,00*44
$GPTXT,01,01,01,ANTENNA OK*35
$GNGGA,072132.146,,,,,0,00,25.5,,,,,,*7C
$GNGLL,,,,,072132.146,V,M*61
$GPGSA,A,1,,,,,,,,,,,,,25.5,25.5,25.5*02
$BDGSA,A,1,,,,,,,,,,,,,25.5,25.5,25.5*13
$GPGSV,2,1,08,05,,,25,13,,,19,15,,,37,21,,,31*7B
$GPGSV,2,2,08,29,,,28,34,,,25,35,,,21,36,,,32*71
$BDGSV,2,1,08,01,,,32,03,,,34,04,,,24,06,,,32*62
$BDGSV,2,2,08,08,,,36,13,,,33,19,,,29,20,,,25*69
$GNRMC,072132.146,V,,,,,,,290918,,,M*5D
$GNVTG,,,,,,,,,M*2D
$GNZDA,072132.146,29,09,2018,00,00*47
$GPTXT,01,01,01,ANTENNA OK*35
$GNGGA,072133.146,,,,,0,00,25.5,,,,,,*7D
$GNGLL,,,,,072133.146,V,M*60
$GPGSA,A,1,,,,,,,,,,,,,25.5,25.5,25.5*02
$BDGSA,A,1,,,,,,,,,,,,,25.5,25.5,25.5*13
$GPGSV,2,1,08,05,,,26,13,,,19,15,,,37,21,,,30*79
$GPGSV,2,2,08,29,,,28,34,,,25,35,,,21,36,,,32*71
$BDGSV,2,1,08,01,,,32,03,,,34,04,,,24,06,,,31*61
$BDGSV,2,2,08,08,,,36,13,,,33,19,,,29,20,,,25*69
$GNRMC,072133.146,V,,,,,,,290918,,,M*5C
$GNVTG,,,,,,,,,M*2D
$GNZDA,072133.146,29,09,2018,00,00*46
$GPTXT,01,01,01,ANTENNA OK*35
$GNGGA,072134.146,,,,,0,00,25.5,,,,,,*7A
$GNGLL,,,,,072134.146,V,M*67
$GPGSA,A,1,,,,,,,,,,,,,25.5,25.5,25.5*02
$BDGSA,A,1,,,,,,,,,,,,,25.5,25.5,25.5*13
$GPGSV,2,1,08,05,,,29,13,,,21,15,,,38,21,,,30*72
$GPGSV,2,2,08,29,,,28,34,,,25,35,,,21,36,,,32*71
$BDGSV,2,1,08,01,,,32,03,,,34,04,,,24,06,,,31*61
$BDGSV,2,2,08,08,,,34,13,,,33,19,,,29,20,,,25*6B
$GNRMC,072134.146,V,,,,,,,290918,,,M*5B
$GNVTG,,,,,,,,,M*2D
$GNZDA,072134.146,29,09,2018,00,00*41
$GPTXT,01,01,01,ANTENNA OK*35
$GNGGA,072135.140,3032.3094,N,10412.5870,E,6,06,8.8,527.8,M,0.0,M,,*7C
$GNGLL,3032.3094,N,10412.5870,E,072135.140,A,E*44
$GPGSA,A,3,15,21,36,,,,,,,,,,9.9,8.8,4.5*31
$BDGSA,A,3,06,13,08,,,,,,,,,,9.9,8.8,4.5*2E
$GPGSV,3,1,10,05,,,29,13,59,051,21,15,77,223,38,20,15,281,*4C
$GPGSV,3,2,10,21,32,317,30,24,18,163,,29,,,26,34,,,25*79
$GPGSV,3,3,10,35,,,21,36,47,140,32*4F
$BDGSV,2,1,08,01,,,32,03,,,34,04,,,24,06,82,357,31*5A
$BDGSV,2,2,08,08,56,135,36,13,85,127,33,19,,,26,20,,,25*6B
$GNRMC,072135.140,A,3032.3094,N,10412.5870,E,7.13,138.44,290918,,,E*77
$GNVTG,138.44,T,,M,7.13,N,13.21,K,E*19
$GNZDA,072135.140,29,09,2018,00,00*46
$GPTXT,01,01,01,ANTENNA OK*35
$GNGGA,072136.000,3032.3084,N,10412.5887,E,6,06,8.8,527.5,M,0.0,M,,*7E
$GNGLL,3032.3084,N,10412.5887,E,072136.000,A,E*4B
$GPGSA,A,3,15,21,36,,,,,,,,,,9.9,8.8,4.5*31
$BDGSA,A,3,06,13,08,,,,,,,,,,9.9,8.8,4.5*2E
$GPGSV,3,1,10,05,,,29,13,59,051,21,15,77,223,37,20,15,281,*43
$GPGSV,3,2,10,21,32,317,30,24,18,163,,29,,,26,34,,,25*79
$GPGSV,3,3,10,35,,,21,36,47,140,32*4F
$BDGSV,2,1,08,01,,,35,03,,,34,04,,,24,06,82,357,32*5E
$BDGSV,2,2,08,08,56,135,36,13,85,127,34,19,,,26,20,,,25*6C
$GNRMC,072136.000,A,3032.3084,N,10412.5887,E,7.29,139.58,290918,,,E*7D
$GNVTG,139.58,T,,M,7.29,N,13.51,K,E*1B
$GNZDA,072136.000,29,09,2018,00,00*40
$GPTXT,01,01,01,ANTENNA OK*35
$GNGGA,072137.000,3032.2992,N,10412.5921,E,1,06,8.8,527.4,M,0.0,M,,*7B
$GNGLL,3032.2992,N,10412.5921,E,072137.000,A,A*4C
$GPGSA,A,3,15,21,36,,,,,,,,,,9.9,8.8,4.5*31
$BDGSA,A,3,06,13,08,,,,,,,,,,9.9,8.8,4.5*2E
$GPGSV,3,1,10,05,,,29,13,59,051,21,15,77,223,37,20,15,281,*43
$GPGSV,3,2,10,21,32,317,30,24,18,163,,29,,,26,34,,,26*7A
$GPGSV,3,3,10,35,,,21,36,47,140,31*4C
$BDGSV,2,1,08,01,,,35,03,,,34,04,,,24,06,82,357,32*5E
$BDGSV,2,2,08,08,56,135,36,13,85,127,34,19,,,28,20,,,25*62
$GNRMC,072137.000,A,3032.2992,N,10412.5921,E,7.18,141.90,290918,,,A*73
$GNVTG,141.90,T,,M,7.18,N,13.29,K,A*19
$GNZDA,072137.000,29,09,2018,00,00*41
$GPTXT,01,01,01,ANTENNA OK*35
$GNGGA,072138.000,3032.2940,N,10412.5905,E,1,06,8.8,527.5,M,0.0,M,,*7C
$GNGLL,3032.2940,N,10412.5905,E,072138.000,A,A*4A
$GPGSA,A,3,15,21,36,,,,,,,,,,9.9,8.8,4.5*31
$BDGSA,A,3,06,13,08,,,,,,,,,,9.9,8.8,4.5*2E
$GPGSV,3,1,10,05,,,26,13,59,051,21,15,77,223,36,20,15,281,*4D
$GPGSV,3,2,10,21,32,317,30,24,18,163,,29,,,26,34,,,26*7A
$GPGSV,3,3,10,35,,,21,36,47,140,31*4C
$BDGSV,2,1,08,01,,,35,03,,,34,04,,,24,06,82,357,32*5E
$BDGSV,2,2,08,08,56,135,36,13,85,127,34,19,,,32,20,,,25*69
$GNRMC,072138.000,A,3032.2940,N,10412.5905,E,7.01,143.58,290918,,,A*7B
$GNVTG,143.58,T,,M,7.01,N,12.98,K,A*1C
$GNZDA,072138.000,29,09,2018,00,00*4E
$GPTXT,01,01,01,ANTENNA OK*35
$GNGGA,072139.000,3032.2905,N,10412.5893,E,1,06,8.8,527.6,M,0.0,M,,*71
$GNGLL,3032.2905,N,10412.5893,E,072139.000,A,A*44
$GPGSA,A,3,15,21,36,,,,,,,,,,9.9,8.8,4.5*31
$BDGSA,A,3,06,13,08,,,,,,,,,,9.9,8.8,4.5*2E
$GPGSV,3,1,10,05,,,26,13,59,051,21,15,77,223,36,20,15,281,28*47
$GPGSV,3,2,10,21,32,317,29,24,18,163,,29,,,26,34,,,26*72
$GPGSV,3,3,10,35,,,21,36,47,140,32*4F
$BDGSV,2,1,08,01,,,35,03,,,34,04,,,24,06,82,357,32*5E
$BDGSV,2,2,08,08,56,135,36,13,85,127,33,19,,,32,20,,,25*6E
$GNRMC,072139.000,A,3032.2905,N,10412.5893,E,6.57,142.62,290918,,,A*7F
$GNVTG,142.62,T,,M,6.57,N,12.17,K,A*11
$GNZDA,072139.000,29,09,2018,00,00*4F
$GPTXT,01,01,01,ANTENNA OK*35
$GNGGA,072140.000,3032.2873,N,10412.5885,E,1,06,8.8,527.5,M,0.0,M,,*7B
$GNGLL,3032.2873,N,10412.5885,E,072140.000,A,A*4D
$GPGSA,A,3,15,21,36,,,,,,,,,,9.9,8.8,4.5*31
$BDGSA,A,3,06,13,08,,,,,,,,,,9.9,8.8,4.5*2E
$GPGSV,3,1,10,05,,,26,13,59,051,21,15,77,223,36,20,15,281,28*47
$GPGSV,3,2,10,21,32,317,29,24,18,163,,29,,,26,34,,,26*72
$GPGSV,3,3,10,35,,,21,36,47,140,32*4F
$BDGSV,2,1,08,01,,,35,03,,,34,04,,,24,06,82,357,32*5E
$BDGSV,2,2,08,08,56,135,36,13,85,127,33,19,,,30,20,,,25*6C
$GNRMC,072140.000,A,3032.2873,N,10412.5885,E,6.41,140.36,290918,,,A*72
$GNVTG,140.36,T,,M,6.41,N,11.86,K,A*1E
$GNZDA,072140.000,29,09,2018,00,00*41
$GPTXT,01,01,01,ANTENNA OK*35
$GNGGA,072141.000,3032.2848,N,10412.5884,E,1,06,8.8,527.5,M,0.0,M,,*73
$GNGLL,3032.2848,N,10412.5884,E,072141.000,A,A*45
$GPGSA,A,3,15,21,36,,,,,,,,,,9.9,8.8,4.5*31
$BDGSA,A,3,06,13,08,,,,,,,,,,9.9,8.8,4.5*2E
$GPGSV,3,1,10,05,,,26,13,59,051,21,15,77,223,37,20,15,281,24*4A
$GPGSV,3,2,10,21,32,317,29,24,18,163,,29,,,26,34,,,26*72
$GPGSV,3,3,10,35,,,20,36,47,140,32*4E
$BDGSV,2,1,08,01,,,31,03,,,34,04,,,24,06,82,357,32*5A
$BDGSV,2,2,08,08,56,135,35,13,85,127,33,19,,,26,20,,,25*68
$GNRMC,072141.000,A,3032.2848,N,10412.5884,E,6.41,138.00,290918,,,A*70
$GNVTG,138.00,T,,M,6.41,N,11.87,K,A*15
$GNZDA,072141.000,29,09,2018,00,00*40
$GPTXT,01,01,01,ANTENNA OK*35
$GNGGA,072142.000,3032.2825,N,10412.5888,E,1,06,8.8,527.4,M,0.0,M,,*76
$GNGLL,3032.2825,N,10412.5888,E,072142.000,A,A*41
$GPGSA,A,3,15,21,36,,,,,,,,,,9.9,8.8,4.5*31
$BDGSA,A,3,06,13,08,,,,,,,,,,9.9,8.8,4.5*2E
$GPGSV,3,1,10,05,,,26,13,59,051,21,15,77,223,39,20,15,281,24*44
$GPGSV,3,2,10,21,32,317,29,24,18,163,,29,,,26,34,,,26*72
$GPGSV,3,3,10,35,,,20,36,47,140,32*4E
$BDGSV,2,1,08,01,,,31,03,,,34,04,,,24,06,82,357,32*5A
$BDGSV,2,2,08,08,56,135,35,13,85,128,33,19,,,26,20,,,25*67
$GNRMC,072142.000,A,3032.2825,N,10412.5888,E,6.35,136.10,290918,,,A*78
$GNVTG,136.10,T,,M,6.35,N,11.76,K,A*17
$GNZDA,072142.000,29,09,2018,00,00*43
$GPTXT,01,01,01,ANTENNA OK*35
$GNGGA,072143.000,3032.2808,N,10412.5896,E,1,06,8.8,527.3,M,0.0,M,,*70
$GNGLL,3032.2808,N,10412.5896,E,072143.000,A,A*40
$GPGSA,A,3,15,21,36,,,,,,,,,,9.9,8.8,4.5*31
$BDGSA,A,3,06,13,08,,,,,,,,,,9.9,8.8,4.5*2E
$GPGSV,3,1,10,05,,,26,13,59,051,21,15,77,223,38,20,15,281,26*47
$GPGSV,3,2,10,21,32,317,29,24,18,163,,29,,,26,34,,,26*72
$GPGSV,3,3,10,35,,,20,36,47,140,31*4D
$BDGSV,2,1,08,01,,,31,03,,,34,04,,,24,06,82,357,32*5A
$BDGSV,2,2,08,08,56,135,35,13,85,128,34,19,,,29,20,,,25*6F
$GNRMC,072143.000,A,3032.2808,N,10412.5896,E,6.16,135.13,290918,,,A*78
$GNVTG,135.13,T,,M,6.16,N,11.41,K,A*12
$GNZDA,072143.000,29,09,2018,00,00*42
$GPTXT,01,01,01,ANTENNA OK*35
$GNGGA,072144.000,3032.2787,N,10412.5911,E,1,06,8.8,527.3,M,0.0,M,,*71
$GNGLL,3032.2787,N,10412.5911,E,072144.000,A,A*41
$GPGSA,A,3,15,21,36,,,,,,,,,,9.9,8.8,4.5*31
$BDGSA,A,3,06,13,08,,,,,,,,,,9.9,8.8,4.5*2E
$GPGSV,3,1,10,05,,,34,13,59,051,22,15,77,223,38,20,15,281,26*47
$GPGSV,3,2,10,21,32,317,29,24,18,163,,29,,,26,34,,,26*72
$GPGSV,3,3,10,35,,,20,36,47,140,31*4D
$BDGSV,2,1,08,01,,,31,03,,,34,04,,,24,06,82,357,31*59
$BDGSV,2,2,08,08,56,136,35,13,85,128,34,19,,,29,20,,,25*6C
$GNRMC,072144.000,A,3032.2787,N,10412.5911,E,5.91,134.21,290918,,,A*75
$GNVTG,134.21,T,,M,5.91,N,10.94,K,A*17
$GNZDA,072144.000,29,09,2018,00,00*45
$GPTXT,01,01,01,ANTENNA OK*35
$GNGGA,072145.000,3032.2772,N,10412.5923,E,1,06,8.8,527.3,M,0.0,M,,*7B
$GNGLL,3032.2772,N,10412.5923,E,072145.000,A,A*4B
$GPGSA,A,3,15,21,36,,,,,,,,,,9.9,8.8,4.5*31
$BDGSA,A,3,06,13,08,,,,,,,,,,9.9,8.8,4.5*2E
$GPGSV,3,1,10,05,,,27,13,59,051,22,15,77,223,37,20,15,281,28*44
$GPGSV,3,2,10,21,32,317,29,24,18,163,,29,,,26,34,,,25*71
$GPGSV,3,3,10,35,,,20,36,47,140,31*4D
$BDGSV,2,1,08,01,,,31,03,,,34,04,,,24,06,82,357,31*59
$BDGSV,2,2,08,08,56,136,34,13,85,128,33,19,,,29,20,,,25*6A
$GNRMC,072145.000,A,3032.2772,N,10412.5923,E,5.82,133.74,290918,,,A*7A
$GNVTG,133.74,T,,M,5.82,N,10.77,K,A*1F
$GNZDA,072145.000,29,09,2018,00,00*44
$GPTXT,01,01,01,ANTENNA OK*35
$GNGGA,072146.000,3032.2759,N,10412.5934,E,1,06,8.8,527.2,M,0.0,M,,*76
$GNGLL,3032.2759,N,10412.5934,E,072146.000,A,A*47
$GPGSA,A,3,15,21,36,,,,,,,,,,9.9,8.8,4.5*31
$BDGSA,A,3,06,13,08,,,,,,,,,,9.9,8.8,4.5*2E
$GPGSV,3,1,10,05,,,27,13,59,051,22,15,77,223,39,20,15,281,28*4A
$GPGSV,3,2,10,21,32,317,30,24,18,163,,29,,,23,34,,,25*7C
$GPGSV,3,3,10,35,,,20,36,47,140,31*4D
$BDGSV,2,1,08,01,,,34,03,,,34,04,,,24,06,82,357,31*5C
$BDGSV,2,2,08,08,56,136,34,13,85,128,33,19,,,31,20,,,25*63
$GNRMC,072146.000,A,3032.2759,N,10412.5934,E,5.28,133.21,290918,,,A*76
$GNVTG,133.21,T,,M,5.28,N,9.77,K,A*27
$GNZDA,072146.000,29,09,2018,00,00*47
$GPTXT,01,01,01,ANTENNA OK*35
$GNGGA,072147.000,3032.2748,N,10412.5944,E,1,06,8.8,527.1,M,0.0,M,,*73
$GNGLL,3032.2748,N,10412.5944,E,072147.000,A,A*41
$GPGSA,A,3,15,21,36,,,,,,,,,,9.9,8.8,4.5*31
$BDGSA,A,3,06,13,08,,,,,,,,,,9.9,8.8,4.5*2E
$GPGSV,3,1,10,05,,,27,13,59,051,30,15,77,223,39,20,15,281,28*49
$GPGSV,3,2,10,21,32,317,30,24,18,163,,29,,,27,34,,,25*78
$GPGSV,3,3,10,35,,,20,36,47,140,31*4D
$BDGSV,2,1,08,01,,,34,03,,,34,04,,,24,06,82,357,31*5C
$BDGSV,2,2,08,08,56,136,34,13,85,128,35,19,,,31,20,,,26*66
$GNRMC,072147.000,A,3032.2748,N,10412.5944,E,4.21,132.75,290918,,,A*78
$GNVTG,132.75,T,,M,4.21,N,7.80,K,A*29
$GNZDA,072147.000,29,09,2018,00,00*46
$GPTXT,01,01,01,ANTENNA OK*35
$GNGGA,072148.000,3032.2740,N,10412.5953,E,1,06,8.8,527.0,M,0.0,M,,*73
$GNGLL,3032.2740,N,10412.5953,E,072148.000,A,A*40
$GPGSA,A,3,15,21,36,,,,,,,,,,9.9,8.8,4.5*31
$BDGSA,A,3,06,13,08,,,,,,,,,,9.9,8.8,4.5*2E
$GPGSV,3,1,10,05,,,34,13,59,051,30,15,77,223,39,20,15,281,28*4B
$GPGSV,3,2,10,21,32,317,30,24,18,163,,29,,,27,34,,,25*78
$GPGSV,3,3,10,35,,,20,36,47,140,31*4D
$BDGSV,2,1,08,01,,,34,03,,,34,04,,,24,06,82,357,32*5F
$BDGSV,2,2,08,08,56,136,34,13,85,128,35,19,,,31,20,,,26*66
$GNRMC,072148.000,A,3032.2740,N,10412.5953,E,3.75,134.82,290918,,,A*71
$GNVTG,134.82,T,,M,3.75,N,6.95,K,A*24
$GNZDA,072148.000,29,09,2018,00,00*49
$GPTXT,01,01,01,ANTENNA OK*35
$GNGGA,072149.000,3032.2742,N,10412.5971,E,1,06,8.8,526.9,M,0.0,M,,*78
$GNGLL,3032.2742,N,10412.5971,E,072149.000,A,A*43
$GPGSA,A,3,15,21,36,,,,,,,,,,9.9,8.8,4.5*31
$BDGSA,A,3,06,13,08,,,,,,,,,,9.9,8.8,4.5*2E
$GPGSV,3,1,10,05,,,28,13,59,051,30,15,77,223,38,20,15,281,28*47
$GPGSV,3,2,10,21,32,317,30,24,18,163,,29,,,30,34,,,25*7E
$GPGSV,3,3,10,35,,,20,36,47,140,31*4D
$BDGSV,2,1,08,01,,,34,03,,,34,04,,,24,06,82,357,35*58
$BDGSV,2,2,08,08,56,136,34,13,85,128,36,19,,,29,20,,,29*63
$GNRMC,072149.000,A,3032.2742,N,10412.5971,E,4.02,136.32,290918,,,A*7C
$GNVTG,136.32,T,,M,4.02,N,7.45,K,A*26
$GNZDA,072149.000,29,09,2018,00,00*48
$GPTXT,01,01,01,ANTENNA OK*35
$GNGGA,072150.000,3032.2735,N,10412.5979,E,1,06,8.8,527.0,M,0.0,M,,*70
$GNGLL,3032.2735,N,10412.5979,E,072150.000,A,A*43
$GPGSA,A,3,15,21,36,,,,,,,,,,9.9,8.8,4.5*31
$BDGSA,A,3,06,13,08,,,,,,,,,,9.9,8.8,4.5*2E
$GPGSV,3,1,10,05,,,32,13,59,051,28,15,77,223,27,20,15,281,28*4B
$GPGSV,3,2,10,21,32,317,30,24,18,163,,29,,,32,34,,,25*7C
$GPGSV,3,3,10,35,,,20,36,47,140,31*4D
$BDGSV,2,1,08,01,,,34,03,,,34,04,,,24,06,82,357,37*5A
$BDGSV,2,2,08,08,56,136,34,13,85,128,36,19,,,29,20,,,34*6F
$GNRMC,072150.000,A,3032.2735,N,10412.5979,E,3.77,138.40,290918,,,A*72
$GNVTG,138.40,T,,M,3.77,N,6.98,K,A*29
$GNZDA,072150.000,29,09,2018,00,00*40
$GPTXT,01,01,01,ANTENNA OK*35
$GNGGA,072151.000,3032.2726,N,10412.5984,E,1,06,8.8,526.9,M,0.0,M,,*79
$GNGLL,3032.2726,N,10412.5984,E,072151.000,A,A*42
$GPGSA,A,3,15,21,36,,,,,,,,,,9.9,8.8,4.5*31
$BDGSA,A,3,06,13,08,,,,,,,,,,9.9,8.8,4.5*2E
$GPGSV,3,1,10,05,,,32,13,59,051,30,15,77,223,38,20,15,281,27*43
$GPGSV,3,2,10,21,32,317,30,24,18,163,,29,,,35,34,,,25*7B
$GPGSV,3,3,10,35,,,20,36,47,140,31*4D
$BDGSV,2,1,08,01,,,34,03,,,34,04,,,23,06,82,357,37*5D
$BDGSV,2,2,08,08,56,136,34,13,85,128,37,19,,,29,20,,,34*6E
$GNRMC,072151.000,A,3032.2726,N,10412.5984,E,3.74,139.51,290918,,,A*71
$GNVTG,139.51,T,,M,3.74,N,6.92,K,A*21
$GNZDA,072151.000,29,09,2018,00,00*41
$GPTXT,01,01,01,ANTENNA OK*35
$GNGGA,072152.000,3032.2716,N,10412.5986,E,1,06,8.8,526.9,M,0.0,M,,*7B
$GNGLL,3032.2716,N,10412.5986,E,072152.000,A,A*40
$GPGSA,A,3,15,21,36,,,,,,,,,,9.9,8.8,4.5*31
$BDGSA,A,3,06,13,08,,,,,,,,,,9.9,8.8,4.5*2E
$GPGSV,3,1,11,02,,,28,05,,,32,13,59,051,36,15,77,223,38*74
$GPGSV,3,2,11,20,15,281,27,21,32,317,30,24,18,163,,29,,,35*42
$GPGSV,3,3,11,34,,,25,35,,,21,36,47,140,30*4C
$BDGSV,2,1,08,01,,,34,03,,,34,04,,,23,06,82,357,36*5C
$BDGSV,2,2,08,08,56,136,34,13,85,128,37,19,,,30,20,,,34*66
$GNRMC,072152.000,A,3032.2716,N,10412.5986,E,3.59,140.14,290918,,,A*73
$GNVTG,140.14,T,,M,3.59,N,6.65,K,A*29
$GNZDA,072152.000,29,09,2018,00,00*42
$GPTXT,01,01,01,ANTENNA OK*35
$GNGGA,072153.000,3032.2704,N,10412.5980,E,1,06,8.8,526.8,M,0.0,M,,*7E
$GNGLL,3032.2704,N,10412.5980,E,072153.000,A,A*44
$GPGSA,A,3,15,21,36,,,,,,,,,,9.9,8.8,4.5*31
$BDGSA,A,3,06,13,08,,,,,,,,,,9.9,8.8,4.5*2E
$GPGSV,3,1,11,02,,,28,05,,,32,13,59,051,35,15,77,223,24*7A
$GPGSV,3,2,11,20,15,281,21,21,32,317,30,24,18,163,,29,,,34*45
$GPGSV,3,3,11,34,,,26,35,,,29,36,47,140,30*47
$BDGSV,2,1,08,01,,,30,03,,,34,04,,,23,06,82,357,36*58
$BDGSV,2,2,08,08,56,136,33,13,85,128,36,19,,,36,20,,,33*61
$GNRMC,072153.000,A,3032.2704,N,10412.5980,E,3.40,141.11,290918,,,A*7B
$GNVTG,141.11,T,,M,3.40,N,6.29,K,A*2D
$GNZDA,072153.000,29,09,2018,00,00*43
$GPTXT,01,01,01,ANTENNA OK*35
$GNGGA,072154.000,3032.2692,N,10412.5968,E,1,06,8.8,526.8,M,0.0,M,,*71
$GNGLL,3032.2692,N,10412.5968,E,072154.000,A,A*4B
$GPGSA,A,3,15,21,36,,,,,,,,,,9.9,8.8,4.5*31
$BDGSA,A,3,06,13,08,,,,,,,,,,9.9,8.8,4.5*2E
$GPGSV,3,1,11,02,,,31,05,,,32,13,59,051,35,15,77,223,24*72
$GPGSV,3,2,11,20,15,281,21,21,32,317,28,24,18,163,,29,,,32*4A
$GPGSV,3,3,11,34,,,32,35,,,29,36,47,140,25*46
$BDGSV,2,1,08,01,,,30,03,,,34,04,,,23,06,82,357,36*58
$BDGSV,2,2,08,08,56,136,33,13,85,128,36,19,,,32,20,,,33*65
$GNRMC,072154.000,A,3032.2692,N,10412.5968,E,3.22,142.47,290918,,,A*70
$GNVTG,142.47,T,,M,3.22,N,5.95,K,A*2D
$GNZDA,072154.000,29,09,2018,00,00*44
$GPTXT,01,01,01,ANTENNA OK*35
$GNGGA,072155.000,3032.2678,N,10412.5954,E,1,06,8.8,526.7,M,0.0,M,,*74
$GNGLL,3032.2678,N,10412.5954,E,072155.000,A,A*41
$GPGSA,A,3,15,21,36,,,,,,,,,,9.9,8.8,4.5*31
$BDGSA,A,3,06,13,08,,,,,,,,,,9.9,8.8,4.5*2E
$GPGSV,3,1,11,02,,,24,05,,,31,13,59,051,35,15,77,223,24*75
$GPGSV,3,2,11,20,15,281,24,21,32,317,28,24,18,163,,29,,,32*4F
$GPGSV,3,3,11,34,,,21,35,,,26,36,47,140,25*4B
$BDGSV,2,1,08,01,,,30,03,,,34,04,,,23,06,82,357,36*58
$BDGSV,2,2,08,08,56,136,34,13,85,128,37,19,,,38,20,,,31*6B
$GNRMC,072155.000,A,3032.2678,N,10412.5954,E,3.05,144.30,290918,,,A*79
$GNVTG,144.30,T,,M,3.05,N,5.64,K,A*20
$GNZDA,072155.000,29,09,2018,00,00*45
$GPTXT,01,01,01,ANTENNA OK*35
$GNGGA,072156.000,3032.2663,N,10412.5935,E,1,06,8.8,526.6,M,0.0,M,,*7B
$GNGLL,3032.2663,N,10412.5935,E,072156.000,A,A*4F
$GPGSA,A,3,15,21,36,,,,,,,,,,9.9,8.8,4.5*31
$BDGSA,A,3,06,13,08,,,,,,,,,,9.9,8.8,4.5*2E
$GPGSV,3,1,11,02,,,24,05,,,31,13,59,051,35,15,77,223,26*77
$GPGSV,3,2,11,20,15,281,31,21,32,317,28,24,18,163,,29,,,32*4B
$GPGSV,3,3,11,34,,,21,35,,,26,36,47,140,21*4F
$BDGSV,2,1,08,01,,,30,03,,,34,04,,,23,06,82,357,36*58
$BDGSV,2,2,08,08,56,136,32,13,85,128,37,19,,,35,20,,,24*64
$GNRMC,072156.000,A,3032.2663,N,10412.5935,E,2.88,146.51,290918,,,A*76
$GNVTG,146.51,T,,M,2.88,N,5.33,K,A*23
$GNZDA,072156.000,29,09,2018,00,00*46
$GPTXT,01,01,01,ANTENNA OK*35
$GNGGA,072157.000,3032.2652,N,10412.5921,E,1,06,8.8,526.6,M,0.0,M,,*7D
$GNGLL,3032.2652,N,10412.5921,E,072157.000,A,A*49
$GPGSA,A,3,15,21,36,,,,,,,,,,9.9,8.8,4.5*31
$BDGSA,A,3,06,13,08,,,,,,,,,,9.9,8.8,4.5*2E
$GPGSV,3,1,11,02,,,24,05,,,31,13,59,051,34,15,77,223,30*71
$GPGSV,3,2,11,20,15,281,25,21,32,317,24,24,18,163,,29,,,32*42
$GPGSV,3,3,11,34,,,21,35,,,21,36,47,140,21*48
$BDGSV,2,1,08,01,,,30,03,,,34,04,,,23,06,82,357,36*58
$BDGSV,2,2,08,08,56,136,27,13,85,128,37,19,,,35,20,,,24*60
$GNRMC,072157.000,A,3032.2652,N,10412.5921,E,2.70,149.08,290918,,,A*74
$GNVTG,149.08,T,,M,2.70,N,5.01,K,A*26
$GNZDA,072157.000,29,09,2018,00,00*47
$GPTXT,01,01,01,ANTENNA OK*35
$GNGGA,072158.000,3032.2639,N,10412.5906,E,1,06,8.8,526.6,M,0.0,M,,*7A
$GNGLL,3032.2639,N,10412.5906,E,072158.000,A,A*4E
$GPGSA,A,3,15,21,36,,,,,,,,,,9.9,8.8,4.5*31
$BDGSA,A,3,06,13,08,,,,,,,,,,9.9,8.8,4.5*2E
$GPGSV,3,1,11,02,,,26,05,,,31,13,59,051,28,15,77,223,30*7E
$GPGSV,3,2,11,20,15,281,25,21,32,317,24,24,18,163,,29,,,32*42
$GPGSV,3,3,11,34,,,21,35,,,21,36,47,140,21*48
$BDGSV,2,1,08,01,,,30,03,,,34,04,,,23,06,82,357,36*58
$BDGSV,2,2,08,08,56,136,27,13,85,128,37,19,,,35,20,,,24*60
$GNRMC,072158.000,A,3032.2639,N,10412.5906,E,2.55,152.15,290918,,,A*72
$GNVTG,152.15,T,,M,2.55,N,4.72,K,A*22
$GNZDA,072158.000,29,09,2018,00,00*48
$GPTXT,01,01,01,ANTENNA OK*35
$GNGGA,072159.000,3032.2627,N,10412.5890,E,1,06,8.8,526.5,M,0.0,M,,*79
$GNGLL,3032.2627,N,10412.5890,E,072159.000,A,A*4E
$GPGSA,A,3,15,21,36,,,,,,,,,,9.9,8.8,4.5*31
$BDGSA,A,3,06,13,08,,,,,,,,,,9.9,8.8,4.5*2E
$GPGSV,3,1,11,02,,,26,05,,,30,13,59,051,28,15,77,223,30*7F
$GPGSV,3,2,11,20,15,281,25,21,32,317,24,24,18,163,,29,,,31*41
$GPGSV,3,3,11,34,,,21,35,,,21,36,47,140,21*48
$BDGSV,2,1,08,01,,,25,03,,,34,04,,,23,06,82,357,36*5C
$BDGSV,2,2,08,08,56,136,27,13,85,128,37,19,,,35,20,,,26*62
$GNRMC,072159.000,A,3032.2627,N,10412.5890,E,2.38,155.14,290918,,,A*7F
$GNVTG,155.14,T,,M,2.38,N,4.42,K,A*2C
$GNZDA,072159.000,29,09,2018,00,00*49
$GPTXT,01,01,01,ANTENNA OK*35
$GNGGA,072200.000,3032.2616,N,10412.5873,E,1,06,8.8,526.6,M,0.0,M,,*7A
$GNGLL,3032.2616,N,10412.5873,E,072200.000,A,A*4E
$GPGSA,A,3,15,21,36,,,,,,,,,,9.9,8.8,4.5*31
$BDGSA,A,3,06,13,08,,,,,,,,,,9.9,8.8,4.5*2E
$GPGSV,3,1,11,02,,,26,05,,,30,13,59,051,26,15,77,223,30*71
$GPGSV,3,2,11,20,15,281,25,21,32,317,24,24,18,163,23,29,,,31*40
$GPGSV,3,3,11,34,,,21,35,,,21,36,47,140,21*48
$BDGSV,2,1,08,01,,,25,03,,,34,04,,,23,06,82,357,36*5C
$BDGSV,2,2,08,08,56,136,31,13,85,128,38,19,,,35,20,,,26*6A
$GNRMC,072200.000,A,3032.2616,N,10412.5873,E,5.42,167.82,290918,,,A*7B
$GNVTG,167.82,T,,M,5.42,N,10.04,K,A*1F
$GNZDA,072200.000,29,09,2018,00,00*46
$GPTXT,01,01,01,ANTENNA OK*35
$GNGGA,072201.000,3032.2602,N,10412.5853,E,1,06,8.8,526.6,M,0.0,M,,*7C
$GNGLL,3032.2602,N,10412.5853,E,072201.000,A,A*48
$GPGSA,A,3,15,21,36,,,,,,,,,,9.9,8.8,4.5*31
$BDGSA,A,3,06,13,08,,,,,,,,,,9.9,8.8,4.5*2E
$GPGSV,3,1,11,02,,,26,05,,,26,13,59,051,26,15,77,223,30*76
$GPGSV,3,2,11,20,15,281,25,21,32,317,24,24,18,163,23,29,,,31*40
$GPGSV,3,3,11,34,,,21,35,,,21,36,47,140,23*4A
$BDGSV,2,1,08,01,,,25,03,,,34,04,,,23,06,82,357,36*5C
$BDGSV,2,2,08,08,56,136,31,13,85,128,38,19,,,35,20,,,26*6A
$GNRMC,072201.000,A,3032.2602,N,10412.5853,E,5.44,182.30,290918,,,A*79
$GNVTG,182.30,T,,M,5.44,N,10.07,K,A*18
$GNZDA,072201.000,29,09,2018,00,00*47
$GPTXT,01,01,01,ANTENNA OK*35
$GNGGA,072202.000,3032.2587,N,10412.5837,E,1,06,8.8,526.6,M,0.0,M,,*73
$GNGLL,3032.2587,N,10412.5837,E,072202.000,A,A*47
$GPGSA,A,3,15,21,36,,,,,,,,,,9.9,8.8,4.5*31
$BDGSA,A,3,06,13,08,,,,,,,,,,9.9,8.8,4.5*2E
$GPGSV,3,1,11,02,,,26,05,,,26,13,59,051,26,15,77,223,30*76
$GPGSV,3,2,11,20,15,281,25,21,32,317,24,24,18,163,20,29,,,32*40
$GPGSV,3,3,11,34,,,22,35,,,21,36,47,140,23*49
$BDGSV,2,1,08,01,,,25,03,,,34,04,,,23,06,82,357,36*5C
$BDGSV,2,2,08,08,56,136,25,13,85,128,37,19,,,34,20,,,26*61
$GNRMC,072202.000,A,3032.2587,N,10412.5837,E,5.66,198.59,290918,,,A*72
$GNVTG,198.59,T,,M,5.66,N,10.48,K,A*17
$GNZDA,072202.000,29,09,2018,00,00*44
$GPTXT,01,01,01,ANTENNA OK*35
$GNGGA,072203.000,3032.2569,N,10412.5816,E,1,06,8.8,526.5,M,0.0,M,,*72
$GNGLL,3032.2569,N,10412.5816,E,072203.000,A,A*45
$GPGSA,A,3,15,21,36,,,,,,,,,,9.8,8.8,4.5*30
$BDGSA,A,3,06,13,08,,,,,,,,,,9.8,8.8,4.5*2F
$GPGSV,3,1,11,02,,,26,05,,,26,13,59,051,26,15,77,223,30*76
$GPGSV,3,2,11,20,15,281,25,21,32,317,24,24,18,163,20,29,,,32*40
$GPGSV,3,3,11,34,,,22,35,,,21,36,47,140,23*49
$BDGSV,2,1,08,01,,,25,03,,,34,04,,,23,06,82,357,37*5D
$BDGSV,2,2,08,08,56,136,25,13,85,128,37,19,,,36,20,,,26*63
$GNRMC,072203.000,A,3032.2569,N,10412.5816,E,5.73,216.67,290918,,,A*7C
$GNVTG,216.67,T,,M,5.73,N,10.62,K,A*13
$GNZDA,072203.000,29,09,2018,00,00*45
$GPTXT,01,01,01,ANTENNA OK*35
$GNGGA,072204.000,3032.2552,N,10412.5795,E,1,06,8.8,526.5,M,0.0,M,,*79
$GNGLL,3032.2552,N,10412.5795,E,072204.000,A,A*4E
$GPGSA,A,3,15,21,36,,,,,,,,,,9.8,8.8,4.5*30
$BDGSA,A,3,06,13,08,,,,,,,,,,9.8,8.8,4.5*2F
$GPGSV,3,1,12,02,,,26,05,,,26,13,58,051,27,15,77,223,30*75
$GPGSV,3,2,12,20,15,281,23,21,32,317,25,24,18,163,20,29,,,30*46
$GPGSV,3,3,12,33,,,25,34,,,22,35,,,21,36,47,140,23*4D
$BDGSV,2,1,08,01,,,25,03,,,34,04,,,23,06,82,357,37*5D
$BDGSV,2,2,08,08,56,136,19,13,85,128,37,19,,,36,20,,,25*6F
$GNRMC,072204.000,A,3032.2552,N,10412.5795,E,5.84,236.55,290918,,,A*7C
$GNVTG,236.55,T,,M,5.84,N,10.82,K,A*16
$GNZDA,072204.000,29,09,2018,00,00*42
$GPTXT,01,01,01,ANTENNA OK*35
$GNGGA,072205.000,3032.2537,N,10412.5776,E,1,06,8.8,526.5,M,0.0,M,,*76
$GNGLL,3032.2537,N,10412.5776,E,072205.000,A,A*41
$GPGSA,A,3,15,21,36,,,,,,,,,,9.8,8.8,4.5*30
$BDGSA,A,3,06,13,08,,,,,,,,,,9.8,8.8,4.5*2F
$GPGSV,3,1,12,02,,,25,05,,,24,13,58,051,27,15,77,223,30*74
$GPGSV,3,2,12,20,15,281,23,21,32,317,28,24,18,163,20,29,,,30*4B
$GPGSV,3,3,12,33,,,25,34,,,22,35,,,21,36,47,140,20*4E
$BDGSV,2,1,08,01,,,25,03,,,32,04,,,23,06,82,357,37*5B
$BDGSV,2,2,08,08,56,136,19,13,85,129,37,19,,,36,20,,,25*6E
$GNRMC,072205.000,A,3032.2537,N,10412.5776,E,5.90,250.20,290918,,,A*74
$GNVTG,250.20,T,,M,5.90,N,10.92,K,A*10
$GNZDA,072205.000,29,09,2018,00,00*43
$GPTXT,01,01,01,ANTENNA OK*35
$GNGGA,072206.000,3032.2523,N,10412.5761,E,1,06,8.8,526.5,M,0.0,M,,*76
$GNGLL,3032.2523,N,10412.5761,E,072206.000,A,A*41
$GPGSA,A,3,15,21,36,,,,,,,,,,9.8,8.8,4.5*30
$BDGSA,A,3,06,13,08,,,,,,,,,,9.8,8.8,4.5*2F
$GPGSV,3,1,12,02,,,25,05,,,24,13,58,051,27,15,77,223,31*75
$GPGSV,3,2,12,20,15,281,23,21,32,317,30,24,18,163,20,29,,,30*42
$GPGSV,3,3,12,33,,,25,34,,,22,35,,,21,36,47,140,20*4E
$BDGSV,2,1,08,01,,,25,03,,,32,04,,,23,06,82,357,36*5A
$BDGSV,2,2,08,08,56,136,23,13,85,129,37,19,,,36,20,,,25*67
$GNRMC,072206.000,A,3032.2523,N,10412.5761,E,5.97,256.21,290918,,,A*74
$GNVTG,256.21,T,,M,5.97,N,11.06,K,A*1C
$GNZDA,072206.000,29,09,2018,00,00*40
$GPTXT,01,01,01,ANTENNA OK*35
$GNGGA,072207.000,3032.2510,N,10412.5744,E,1,06,8.8,526.4,M,0.0,M,,*71
$GNGLL,3032.2510,N,10412.5744,E,072207.000,A,A*47
$GPGSA,A,3,15,21,36,,,,,,,,,,9.8,8.8,4.5*30
$BDGSA,A,3,06,13,08,,,,,,,,,,9.8,8.8,4.5*2F
$GPGSV,3,1,12,02,,,25,05,,,24,13,58,051,28,15,77,223,31*7A
$GPGSV,3,2,12,20,15,281,17,21,32,317,30,24,18,163,20,29,,,30*45
$GPGSV,3,3,12,33,,,25,34,,,22,35,,,21,36,47,140,20*4E
$BDGSV,3,1,09,01,,,25,02,,,33,03,,,32,04,,,23*60
$BDGSV,3,2,09,06,82,357,36,08,56,136,27,13,85,129,38,19,,,36*51
$BDGSV,3,3,09,20,,,21*60
$GNRMC,072207.000,A,3032.2510,N,10412.5744,E,6.01,258.07,290918,,,A*74
$GNVTG,258.07,T,,M,6.01,N,11.14,K,A*19
$GNZDA,072207.000,29,09,2018,00,00*41
$GPTXT,01,01,01,ANTENNA OK*35
$GNGGA,072208.000,3032.2498,N,10412.5727,E,1,06,8.8,526.5,M,0.0,M,,*7B
$GNGLL,3032.2498,N,10412.5727,E,072208.000,A,A*4C
$GPGSA,A,3,15,21,36,,,,,,,,,,9.8,8.8,4.5*30
$BDGSA,A,3,06,13,08,,,,,,,,,,9.8,8.8,4.5*2F
$GPGSV,3,1,12,02,,,25,05,,,24,13,58,051,28,15,77,223,31*7A
$GPGSV,3,2,12,20,15,281,17,21,32,317,30,24,18,163,22,29,,,31*46
$GPGSV,3,3,12,33,,,25,34,,,22,35,,,21,36,47,140,20*4E
$BDGSV,3,1,09,01,,,25,02,,,33,03,,,32,04,,,23*60
$BDGSV,3,2,09,06,82,357,37,08,56,136,27,13,85,129,38,19,,,36*50
$BDGSV,3,3,09,20,,,21*60
$GNRMC,072208.000,A,3032.2498,N,10412.5727,E,6.04,257.46,290918,,,A*70
$GNVTG,257.46,T,,M,6.04,N,11.18,K,A*1A
$GNZDA,072208.000,29,09,2018,00,00*4E
$GPTXT,01,01,01,ANTENNA OK*35
$GNGGA,072209.000,3032.2488,N,10412.5713,E,1,06,8.8,526.6,M,0.0,M,,*7F
$GNGLL,3032.2488,N,10412.5713,E,072209.000,A,A*4B
$GPGSA,A,3,15,21,36,,,,,,,,,,9.8,8.8,4.5*30
$BDGSA,A,3,06,13,08,,,,,,,,,,9.8,8.8,4.5*2F
$GPGSV,4,1,13,02,,,23,05,,,24,13,58,051,28,15,77,223,31*7A
$GPGSV,4,2,13,20,15,281,17,21,32,317,30,24,18,163,22,29,,,31*40
$GPGSV,4,3,13,31,,,20,33,,,25,34,,,23,35,,,21*78
$GPGSV,4,4,13,36,47,140,20*4A
$BDGSV,3,1,09,01,,,25,02,,,33,03,,,32,04,,,23*60
$BDGSV,3,2,09,06,82,357,37,08,56,136,27,13,85,129,38,19,,,36*50
$BDGSV,3,3,09,20,,,21*60
$GNRMC,072209.000,A,3032.2488,N,10412.5713,E,5.97,255.63,290918,,,A*7B
$GNVTG,255.63,T,,M,5.97,N,11.06,K,A*19
$GNZDA,072209.000,29,09,2018,00,00*4F
$GPTXT,01,01,01,ANTENNA OK*35
$GNGGA,072210.000,3032.2478,N,10412.5697,E,1,06,8.8,526.6,M,0.0,M,,*75
$GNGLL,3032.2478,N,10412.5697,E,072210.000,A,A*41
$GPGSA,A,3,15,21,36,,,,,,,,,,9.8,8.8,4.5*30
$BDGSA,A,3,06,13,08,,,,,,,,,,9.8,8.8,4.5*2F
$GPGSV,4,1,13,02,,,23,05,,,24,13,58,051,29,15,77,223,31*7B
$GPGSV,4,2,13,20,15,281,17,21,32,317,29,24,18,163,22,29,,,32*4B
$GPGSV,4,3,13,31,,,20,33,,,26,34,,,23,35,,,21*7B
$GPGSV,4,4,13,36,47,140,20*4A
$BDGSV,3,1,09,01,,,25,02,,,33,03,,,32,04,,,21*62
$BDGSV,3,2,09,06,82,357,37,08,56,136,27,13,85,129,38,19,,,36*50
$BDGSV,3,3,09,20,,,23*62
$GNRMC,072210.000,A,3032.2478,N,10412.5697,E,5.73,253.32,290918,,,A*79
$GNVTG,253.32,T,,M,5.73,N,10.61,K,A*11
$GNZDA,072210.000,29,09,2018,00,00*47
$GPTXT,01,01,01,ANTENNA OK*35
$GNGGA,072211.000,3032.2468,N,10412.5682,E,1,06,8.8,526.6,M,0.0,M,,*71
$GNGLL,3032.2468,N,10412.5682,E,072211.000,A,A*45
$GPGSA,A,3,15,21,36,,,,,,,,,,9.8,8.8,4.5*30
$BDGSA,A,3,06,13,08,,,,,,,,,,9.8,8.8,4.5*2F
$GPGSV,4,1,13,02,,,23,05,,,24,13,58,051,29,15,77,223,33*79
$GPGSV,4,2,13,20,15,281,17,21,32,317,29,24,18,163,22,29,,,32*4B
$GPGSV,4,3,13,31,,,20,33,,,26,34,,,23,35,,,22*78
$GPGSV,4,4,13,36,47,140,20*4A
$BDGSV,3,1,09,01,,,25,02,,,33,03,,,32,04,,,21*62
$BDGSV,3,2,09,06,82,357,37,08,56,136,25,13,85,129,38,19,,,36*52
$BDGSV,3,3,09,20,,,23*62
$GNRMC,072211.000,A,3032.2468,N,10412.5682,E,5.44,250.93,290918,,,A*71
$GNVTG,250.93,T,,M,5.44,N,10.07,K,A*1D
$GNZDA,072211.000,29,09,2018,00,00*46
$GPTXT,01,01,01,ANTENNA OK*35
$GNGGA,072212.000,3032.2458,N,10412.5667,E,1,06,8.8,526.6,M,0.0,M,,*7A
$GNGLL,3032.2458,N,10412.5667,E,072212.000,A,A*4E
$GPGSA,A,3,15,21,36,,,,,,,,,,9.8,8.8,4.5*30
$BDGSA,A,3,06,13,08,,,,,,,,,,9.8,8.8,4.5*2F
$GPGSV,3,1,12,02,,,23,05,,,24,13,58,051,29,15,77,223,33*7F
$GPGSV,3,2,12,20,15,281,17,21,32,317,25,24,18,163,22,29,,,32*41
$GPGSV,3,3,12,33,,,26,34,,,23,35,,,22,36,47,140,20*4F
$BDGSV,3,1,09,01,,,23,02,,,33,03,,,32,04,,,21*64
$BDGSV,3,2,09,06,82,357,37,08,56,136,25,13,85,129,38,19,,,36*52
$BDGSV,3,3,09,20,,,23*62
$GNRMC,072212.000,A,3032.2458,N,10412.5667,E,5.42,248.71,290918,,,A*79
$GNVTG,248.71,T,,M,5.42,N,10.03,K,A*1A
$GNZDA,072212.000,29,09,2018,00,00*45
$GPTXT,01,01,01,ANTENNA OK*35
$GNGGA,072213.000,3032.2449,N,10412.5653,E,1,06,8.8,526.6,M,0.0,M,,*7C
$GNGLL,3032.2449,N,10412.5653,E,072213.000,A,A*48
$GPGSA,A,3,15,21,36,,,,,,,,,,9.8,8.8,4.5*30
$BDGSA,A,3,06,13,08,,,,,,,,,,9.8,8.8,4.5*2F
$GPGSV,3,1,12,02,,,23,05,,,25,13,58,051,29,15,77,223,35*78
$GPGSV,3,2,12,20,15,281,17,21,32,317,25,24,18,163,22,29,,,32*41
$GPGSV,3,3,12,33,,,26,34,,,25,35,,,26,36,47,140,20*4D
$BDGSV,3,1,09,01,,,23,02,,,33,03,,,32,04,,,21*64
$BDGSV,3,2,09,06,82,357,37,08,56,136,25,13,85,129,38,19,,,35*51
$BDGSV,3,3,09,20,,,23*62
$GNRMC,072213.000,A,3032.2449,N,10412.5653,E,5.18,246.82,290918,,,A*72
$GNVTG,246.82,T,,M,5.18,N,9.59,K,A*20
$GNZDA,072213.000,29,09,2018,00,00*44
$GPTXT,01,01,01,ANTENNA OK*35
$GNGGA,072214.000,3032.2441,N,10412.5639,E,1,06,8.8,526.7,M,0.0,M,,*7E
$GNGLL,3032.2441,N,10412.5639,E,072214.000,A,A*4B
$GPGSA,A,3,15,21,36,,,,,,,,,,9.8,8.8,4.5*30
$BDGSA,A,3,06,13,08,,,,,,,,,,9.8,8.8,4.5*2F
$GPGSV,3,1,12,02,,,23,05,,,29,13,58,051,29,15,77,223,33*72
$GPGSV,3,2,12,20,15,281,17,21,32,317,27,24,18,163,22,29,,,32*43
$GPGSV,3,3,12,33,,,27,34,,,25,35,,,29,36,47,140,29*4A
$BDGSV,2,1,08,01,,,23,02,,,33,03,,,32,06,82,357,37*5A
$BDGSV,2,2,08,08,56,136,27,13,85,129,38,19,,,35,20,,,23*69
$GNRMC,072214.000,A,3032.2441,N,10412.5639,E,4.46,245.42,290918,,,A*74
$GNVTG,245.42,T,,M,4.46,N,8.25,K,A*2F
$GNZDA,072214.000,29,09,2018,00,00*43
$GPTXT,01,01,01,ANTENNA OK*35
$GNGGA,072215.000,3032.2436,N,10412.5632,E,1,06,8.8,526.6,M,0.0,M,,*75
$GNGLL,3032.2436,N,10412.5632,E,072215.000,A,A*41
$GPGSA,A,3,15,21,36,,,,,,,,,,9.8,8.8,4.5*30
$BDGSA,A,3,06,13,08,,,,,,,,,,9.8,8.8,4.5*2F
$GPGSV,3,1,12,02,,,23,05,,,29,13,58,051,29,15,77,223,33*72
$GPGSV,3,2,12,20,15,281,17,21,32,317,27,24,18,163,22,29,,,32*43
$GPGSV,3,3,12,33,,,27,34,,,25,35,,,29,36,47,140,29*4A
$BDGSV,2,1,08,01,,,23,02,,,33,03,,,32,06,82,357,37*5A
$BDGSV,2,2,08,08,56,136,30,13,85,129,39,19,,,36,20,,,23*6D
$GNRMC,072215.000,A,3032.2436,N,10412.5632,E,2.54,243.48,290918,,,A*77
$GNVTG,243.48,T,,M,2.54,N,4.71,K,A*2B
$GNZDA,072215.000,29,09,2018,00,00*42
$GPTXT,01,01,01,ANTENNA OK*35
$GNGGA,072216.000,3032.2432,N,10412.5626,E,1,06,8.8,526.4,M,0.0,M,,*75
$GNGLL,3032.2432,N,10412.5626,E,072216.000,A,A*43
$GPGSA,A,3,15,21,36,,,,,,,,,,9.8,8.8,4.5*30
$BDGSA,A,3,06,13,08,,,,,,,,,,9.8,8.8,4.5*2F
$GPGSV,3,1,12,02,,,23,05,,,25,13,58,051,29,15,77,223,33*7E
$GPGSV,3,2,12,20,15,281,17,21,32,317,30,24,18,163,22,29,,,32*45
$GPGSV,3,3,12,33,,,27,34,,,25,35,,,29,36,47,140,29*4A
$BDGSV,2,1,08,01,,,23,02,,,33,03,,,32,06,82,357,37*5A
$BDGSV,2,2,08,08,56,136,30,13,85,129,38,19,,,36,20,,,23*6C
$GNRMC,072216.000,A,3032.2432,N,10412.5626,E,2.41,239.27,290918,,,A*75
$GNVTG,239.27,T,,M,2.41,N,4.46,K,A*2F
$GNZDA,072216.000,29,09,2018,00,00*41
$GPTXT,01,01,01,ANTENNA OK*35
$GNGGA,072217.000,3032.2429,N,10412.5620,E,1,06,8.8,526.3,M,0.0,M,,*7F
$GNGLL,3032.2429,N,10412.5620,E,072217.000,A,A*4E
$GPGSA,A,3,15,21,36,,,,,,,,,,9.8,8.8,4.5*30
$BDGSA,A,3,06,13,08,,,,,,,,,,9.8,8.8,4.5*2F
$GPGSV,3,1,12,02,,,23,05,,,25,13,58,051,29,15,77,223,33*7E
$GPGSV,3,2,12,20,15,281,17,21,32,317,30,24,18,163,23,29,,,32*44
$GPGSV,3,3,12,33,,,27,34,,,21,35,,,29,36,47,140,29*4E
$BDGSV,2,1,08,01,,,23,02,,,33,03,,,32,06,82,357,37*5A
$BDGSV,2,2,08,08,56,136,30,13,85,129,38,19,,,35,20,,,21*6D
$GNRMC,072217.000,A,3032.2429,N,10412.5620,E,2.08,236.24,290918,,,A*79
$GNVTG,236.24,T,,M,2.08,N,3.84,K,A*27
$GNZDA,072217.000,29,09,2018,00,00*40
$GPTXT,01,01,01,ANTENNA OK*35
$GNGGA,072218.000,3032.2425,N,10412.5611,E,1,06,8.8,526.2,M,0.0,M,,*7F
$GNGLL,3032.2425,N,10412.5611,E,072218.000,A,A*4F
$GPGSA,A,3,15,21,36,,,,,,,,,,9.8,8.8,4.5*30
$BDGSA,A,3,06,13,08,,,,,,,,,,9.8,8.8,4.5*2F
$GPGSV,3,1,12,02,,,23,05,,,25,13,58,051,28,15,77,223,32*7E
$GPGSV,3,2,12,20,15,281,14,21,32,317,30,24,18,163,32,29,,,33*46
$GPGSV,3,3,12,33,,,27,34,,,21,35,,,29,36,47,140,28*4F
$BDGSV,2,1,08,01,,,23,02,,,33,03,,,32,06,82,357,36*5B
$BDGSV,2,2,08,08,56,136,30,13,85,129,38,19,,,35,20,,,21*6D
$GNRMC,072218.000,A,3032.2425,N,10412.5611,E,3.11,234.25,290918,,,A*72
$GNVTG,234.25,T,,M,3.11,N,5.77,K,A*27
$GNZDA,072218.000,29,09,2018,00,00*4F
$GPTXT,01,01,01,ANTENNA OK*35
$GNGGA,072219.000,3032.2421,N,10412.5604,E,1,06,8.8,526.2,M,0.0,M,,*7E
$GNGLL,3032.2421,N,10412.5604,E,072219.000,A,A*4E
$GPGSA,A,3,15,21,36,,,,,,,,,,9.8,8.8,4.5*30
$BDGSA,A,3,06,13,08,,,,,,,,,,9.8,8.8,4.5*2F
$GPGSV,3,1,12,02,,,23,05,,,25,13,58,051,28,15,77,223,34*78
$GPGSV,3,2,12,20,15,281,14,21,32,317,30,24,18,163,29,29,,,33*4C
$GPGSV,3,3,12,33,,,27,34,,,21,35,,,29,36,47,140,28*4F
$BDGSV,2,1,08,01,,,23,02,,,33,03,,,32,06,82,357,38*55
$BDGSV,2,2,08,08,56,136,30,13,85,129,38,19,,,35,20,,,21*6D
$GNRMC,072219.000,A,3032.2421,N,10412.5604,E,2.24,232.94,290918,,,A*78
$GNVTG,232.94,T,,M,2.24,N,4.16,K,A*2A
$GNZDA,072219.000,29,09,2018,00,00*4E
$GPTXT,01,01,01,ANTENNA OK*35
$GNGGA,072220.000,3032.2418,N,10412.5598,E,1,06,8.8,526.1,M,0.0,M,,*7B
